state,location,address,latitude,longitude
Alabama,Auburn,"346 W Magnolia Ave Auburn, AL 36832 US",32.606812966051244,-85.48732833164195
Alabama,Birmingham,"300 20th St S Birmingham, AL 35233 US",33.509721495414745,-86.80275567068401
Alabama,Birmingham,"3220 Morrow Rd Birmingham, AL 35235 US",33.59558141391436,-86.64743684970283
Alabama,Birmingham,"4719 Highway 280 Birmingham, AL 35242 US",33.42258214624579,-86.6982794650297
Alabama,Cullman,"1821 Cherokee Ave SW Cullman, AL 35055 US",34.15413376734492,-86.84122007667406
Alabama,Hoover,"1759 Montgomery Hwy Hoover, AL 35244 US",33.378958029568594,-86.80380210088629
Alabama,Huntsville,"5900 University Dr NW Ste D2 Huntsville, AL 35806 US",34.742319254429496,-86.6657204641674
Alabama,Mobile,"3871 Airport Blvd Mobile, AL 36608 US",30.675337809949887,-88.143753929995
Alabama,Mobile,"7765 Airport Blvd D100 Mobile, AL 36608 US",30.68273057569605,-88.22499815689844
Alabama,Montgomery,"2560 Berryhill Rd Ste C Montgomery, AL 36117 US",32.35917687650774,-86.16225285227608
Alabama,Opelika,"2125 Interstate Dr Opelika, AL 36801 US",32.616808752194316,-85.40447876717928
Alabama,Prattville,"2566 Cobbs Ford Rd Prattville, AL 36066 US",32.459169,-86.391343
Alabama,Tuscaloosa,"1203 University Blvd Tuscaloosa, AL 35401 US",33.21066866513092,-87.55362088910408
Alabama,Tuscaloosa,"1800 McFarland Blvd E Ste 608 Tuscaloosa, AL 35404 US",33.19675499999999,-87.52704204662706
Alabama,Vestavia Hills,"1031 Montgomery Hwy Ste 111 Vestavia Hills, AL 35216 US",33.439069161673594,-86.78828456747647
Arizona,Avondale,"9925 W McDowell Rd Ste 101 Avondale, AZ 85392 US",33.46437705872272,-112.27319356506382
Arizona,Buckeye,"944 S Watson Rd Buckeye, AZ 85326 US",33.4383084,-112.55830390000001
Arizona,Casa Grande,"1775 E Florence Blvd Ste 1 Casa Grande, AZ 85122 US",32.8791300574308,-111.71123532758007
Arizona,Cave Creek,"5355 E Carefree Hwy Bldg E Cave Creek, AZ 85331 US",33.7991455,-111.96608379999999
Arizona,Chandler,"2895 S Alma School Rd Ste 1 Chandler, AZ 85286 US",33.2639222376452,-111.8572605975222
Arizona,Chandler,"3395 W Chandler Blvd Suite 1 Chandler, AZ 85226 US",33.30528109389568,-111.8999821928628
Arizona,Chandler,"890 N 54th St Ste 5 Chandler, AZ 85226 US",33.31742039082265,-111.96882761900793
Arizona,Flagstaff,"1111 S Plaza Way Flagstaff, AZ 86001 US",35.189859999999996,-111.661643
Arizona,Gilbert,"1084 S Gilbert Rd Ste 104 Gilbert, AZ 85296 US",33.32988022270755,-111.79089592376448
Arizona,Gilbert,"1546 N Cooper Rd Gilbert, AZ 85233 US",33.37792420216465,-111.80763961039871
Arizona,Gilbert,"2224 E Williams Field Rd Ste 109 Gilbert, AZ 85295 US",33.3081148,-111.74274140000001
Arizona,Gilbert,"3757 S Gilbert Rd Ste 110 Gilbert, AZ 85297 US",33.281812,-111.78891580000001
Arizona,Glendale,"20004 N 67th Ave Suite 500 Glendale, AZ 85308 US",33.6659131,-112.20345379999999
Arizona,Glendale,"5849 W Northern Ave Ste 500 Glendale, AZ 85301 US",33.5523649,-112.1856023
Arizona,Glendale,"5880 W Thunderbird Rd Ste 1 Glendale, AZ 85306 US",33.61131275531313,-112.18452254968548
Arizona,Glendale,"7700 W Arrowhead Towne Ctr Ste 2067 Glendale, AZ 85308 US",33.64207417858354,-112.22530473871643
Arizona,Glendale,"9410 W Hanna Ln Ste A101 Glendale, AZ 85305 US",33.535085678021716,-112.26195146901438
Arizona,Goodyear,"1560 N Litchfield Rd Goodyear, AZ 85395 US",33.463806634713315,-112.35866282944778
Arizona,Green Valley,"18725 S Nogales Hwy Green Valley, AZ 85614 US",31.909951,-110.9799733
Arizona,Kingman,"3455 N Stockton Hill Rd Ste C Kingman, AZ 86409 US",35.2241165,-114.0370087
Arizona,Lake Havasu City,"55 Lake Havasu Ave S Ste M Lake Havasu City, AZ 86403 US",34.47479664860446,-114.34551069653816
Arizona,Laveen,"5130 W Baseline Rd Ste 105 Laveen, AZ 85339 US",33.37927,-112.16899939999999
Arizona,Marana,"5940 W Arizona Pavillions Dr Ste 110 Marana, AZ 85743 US",32.354884717102536,-111.09165199846213
Arizona,Maricopa,"21423 N John Wayne Pkwy Ste 105 Maricopa, AZ 85139 US",33.0735015,-112.0428503
Arizona,Mesa,"1229 E McKellips Rd Ste 102 Mesa, AZ 85203 US",33.451065255847375,-111.80335687153051
Arizona,Mesa,"1335 S Alma School Rd Ste 105 Mesa, AZ 85210 US",33.38960599017438,-111.85682718956663
Arizona,Mesa,"1411 S Power Rd Ste 103 Mesa, AZ 85206 US",33.3898773,-111.68393590000002
Arizona,Mesa,"1955 S Signal Butte Rd Ste 101 Mesa, AZ 85209 US",33.379424818134176,-111.60094897883607
Arizona,Mesa,"2849 N Power Rd Ste 101 Mesa, AZ 85215 US",33.467905312396304,-111.68346853282073
Arizona,Mesa,"3440 E Baseline Rd Unit 104 Mesa, AZ 85204 US",33.37966761390607,-111.75581290980438
Arizona,Mesa,"4984 S Power Rd Ste 107 Mesa, AZ 85212 US",33.32550687825606,-111.68759818374691
Arizona,Oro Valley,"10604 N Oracle Rd Ste 101 Oro Valley, AZ 85737 US",32.3987337,-110.95573970000001
Arizona,Peoria,"16680 N 83rd Ave Ste 101 Peoria, AZ 85382 US",33.63626807976065,-112.23411100604244
Arizona,Peoria,"9940 W Happy Valley Pkwy Ste 1040 Peoria, AZ 85383 US",33.711424900000004,-112.27308059999999
Arizona,Phoenix,"100 E Camelback Rd 200 Phoenix, AZ 85012 US",33.5096598,-112.07167920000002
Arizona,Phoenix,"11 W Washington St Suite 140 Phoenix, AZ 85003 US",33.44806055476972,-112.07445550735758
Arizona,Phoenix,"1515 N 7th Ave Ste 120 Phoenix, AZ 85007 US",33.4655983,-112.08238109999999
Arizona,Phoenix,"1660 E Camelback Rd Ste 185 Phoenix, AZ 85016 US",33.51037506402035,-112.04622043510204
Arizona,Phoenix,"16635 N Tatum Blvd Ste 100 Phoenix, AZ 85032 US",33.63818544112361,-111.97738650921002
Arizona,Phoenix,"1818 W Bethany Home Rd Phoenix, AZ 85015 US",33.524379700000004,-112.0986855
Arizona,Phoenix,"21001 N Tatum Blvd Phoenix, AZ 85050 US",33.6747533,-111.9752754
Arizona,Phoenix,"2415 E Baseline Rd Ste 111 Phoenix, AZ 85042 US",33.377257168580776,-112.02987286502967
Arizona,Phoenix,"2450 W Bell Rd Ste 5 Phoenix, AZ 85023 US",33.640372836488105,-112.11227864140172
Arizona,Phoenix,"2470 W Happy Valley Rd Ste 1181 Phoenix, AZ 85085 US",33.714657,-112.1125722
Arizona,Phoenix,"3009 W Agua Fria Fwy Ste #1 Phoenix, AZ 85027 US",33.66665768531911,-112.12322165701374
Arizona,Phoenix,"3039 W Peoria Ave Ste C105 Phoenix, AZ 85029 US",33.5814625,-112.1251124
Arizona,Phoenix,"3125 E Indian School Rd Ste 101 Phoenix, AZ 85016 US",33.49495085405304,-112.014633376275
Arizona,Phoenix,"4111 E Chandler Blvd Phoenix, AZ 85048 US",33.30479751662666,-111.99361395337296
Arizona,Phoenix,"425 E Bell Rd Ste 140 Phoenix, AZ 85022 US",33.63993406534886,-112.06746827976605
Arizona,Phoenix,"4423 E. Thomas Road Suite B Phoenix, AZ 85018 US",33.47971018719496,-111.98621165153791
Arizona,Phoenix,"4622 E Cactus Rd Phoenix, AZ 85032 US",33.599529,-111.981757
Arizona,Phoenix,"4705 E Broadway Rd Phoenix, AZ 85040 US",33.406421,-111.979649
Arizona,Phoenix,"7427 W Thomas Rd Suite 5 Phoenix, AZ 85033 US",33.479676480750506,-112.21983422329616
Arizona,Prescott,"351 N Montezuma St Ste B Prescott, AZ 86301 US",34.54663162772478,-112.46924604662706
Arizona,Prescott Valley,"5791 E State Route 69 Ste 100 Prescott Valley, AZ 86314 US",34.578154999999995,-112.362518
Arizona,Queen Creek,"21172 S Ellsworth Loop Rd Ste 114 Queen Creek, AZ 85142 US",33.256185336370194,-111.63888845969365
Arizona,Scottsdale,"11015 N Scottsdale Rd Ste 100 Scottsdale, AZ 85254 US",33.58595737304114,-111.92558185222026
Arizona,Scottsdale,"15035 N Thompson Peak Pkwy Ste E101 Scottsdale, AZ 85260 US",33.622401247673174,-111.873954738914
Arizona,Scottsdale,"15425 N Scottsdale Rd Ste 160 Scottsdale, AZ 85254 US",33.62629570000001,-111.92482009999999
Arizona,Scottsdale,"20851 N Scottsdale Rd Ste 101 Scottsdale, AZ 85255 US",33.676241398416984,-111.92401394661744
Arizona,Scottsdale,"2805 N Scottsdale Rd Ste 105 Scottsdale, AZ 85257 US",33.47933691276461,-111.92576791791788
Arizona,Scottsdale,"4513 N Scottsdale Rd Ste 108 Scottsdale, AZ 85251 US",33.50337052422998,-111.92569464601536
Arizona,Scottsdale,"7014 E Camelback Rd Ste 580 Scottsdale, AZ 85251 US",33.5036726721399,-111.92923654571541
Arizona,Scottsdale,"8320 N Hayden Rd Ste 108 Scottsdale, AZ 85258 US",33.557573600000005,-111.89913759999999
Arizona,Scottsdale,"9010 E Talking Stick Way Scottsdale, AZ 85250 US",33.5386903,-111.8876449
Arizona,Scottsdale,"9301 E Shea Blvd Ste 102 Scottsdale, AZ 85260 US",33.58081392662861,-111.8819009164954
Arizona,Sedona,"361 Forest Rd Ste B Sedona, AZ 86336 US",34.8683633460064,-111.76199563343236
Arizona,Sierra Vista,"480 N Highway 90 Byp Ste A6 Sierra Vista, AZ 85635 US",31.559864738843068,-110.2579385717096
Arizona,Surprise,"13869 W Bell Rd Ste 107 Surprise, AZ 85374 US",33.63829071307527,-112.35909253559929
Arizona,Tempe,"1038 S Mill Ave Tempe, AZ 85281 US",33.41798133570578,-111.94040165583704
Arizona,Tempe,"1655 W Elliot Rd Tempe, AZ 85284 US",33.348634000000004,-111.965379
Arizona,Tempe,"2000 E Rio Salado Pkwy Ste 1226 Tempe, AZ 85281 US",33.433368350573275,-111.90183616209517
Arizona,Tempe,"2020 E Elliot Rd Ste 102 Tempe, AZ 85284 US",33.349788800000006,-111.90155890000001
Arizona,Tempe,"815 E Baseline Rd Ste 118 Tempe, AZ 85283 US",33.37791758045822,-111.92908496080338
Arizona,Tucson,"1202 W Irvington Rd Tucson, AZ 85714 US",32.1639328,-110.9897341
Arizona,Tucson,"235 W Wetmore Rd Ste 101 Tucson, AZ 85705 US",32.2861099,-110.97555190000001
Arizona,Tucson,"3055 N Campbell Ave Ste 183 Tucson, AZ 85719 US",32.262389514895965,-110.9441263400534
Arizona,Tucson,"4774 E Grant Rd Tucson, AZ 85712 US",32.25002327893095,-110.89092465751298
Arizona,Tucson,"5870 E Broadway Blvd Ste 3002 Tucson, AZ 85711 US",32.21917539349937,-110.865486800636
Arizona,Tucson,"6501 E Grant Rd Ste 141 Tucson, AZ 85715 US",32.25026412653463,-110.85154298893757
Arizona,Tucson,"7555 N La Cholla Blvd Ste 155 Tucson, AZ 85741 US",32.3435616,-111.01341969999999
Arizona,Tucson,"905 E University Blvd Ste 149 Tucson, AZ 85719 US",32.231921707186025,-110.95746181562401
Arizona,Tucson,"9484 E 22nd St Ste 130 Tucson, AZ 85710 US",32.20596149006868,-110.79014354983956
Arizona,Yuma,"1525 S Yuma Palms Pkwy Ste 3 Yuma, AZ 85365 US",32.699728,-114.60106840000002
Arizona,Yuma,"3080 S 4th Avenue Suite A Yuma, AZ 85364 US",32.699878140781735,-114.60100324176365
Arkansas,Bentonville,"2400 SE Walton Blvd Bentonville, AR 72712 US",36.33465562169019,-94.18511392344068
Arkansas,Conway,"915 E Oak St Conway, AR 72032 US",35.091087283159816,-92.41823377546314
Arkansas,Fayetteville,"3379 N College Ave Ste 1 Fayetteville, AR 72703 US",36.11273654734074,-94.1453854033556
Arkansas,Fayetteville,"550 W Dickson St Fayetteville, AR 72701 US",36.066736703377906,-94.16612579287356
Arkansas,Little Rock,"100 S University Ave Little Rock, AR 72205 US",34.75201036980043,-92.34153181349184
Arkansas,Little Rock,"11525 Cantrell Rd Ste 1000 Little Rock, AR 72212 US",34.79354122408321,-92.40036710778713
California,Alameda,"2314 S Shore Ctr Alameda, CA 94501 US",37.756120700000004,-122.25011370000001
California,Alameda,"2610 5th St Ste A Alameda, CA 94501 US",37.786141007761614,-122.28120659723874
California,Alhambra,"2121 W Main St Ste 210 Alhambra, CA 91801 US",34.092555299999994,-118.1458415
California,Aliso Viejo,"26661 Aliso Creek Rd Ste A Aliso Viejo, CA 92656 US",33.57698001431661,-117.72542602602846
California,Anaheim,"2002 E Lincoln Ave Anaheim, CA 92806 US",33.83957989941753,-117.88867467392521
California,Anaheim,"5631 E La Palma Ave Anaheim, CA 92807 US",33.86056975099201,-117.79228294204808
California,Anaheim,"8182 E Santa Ana Canyon Rd Ste 195 Anaheim, CA 92808 US",33.868027861305755,-117.74815098742596
California,Anaheim,"927 S Euclid St Ste B Anaheim, CA 92802 US",33.818638951126964,-117.94176801989964
California,Apple Valley,"19179 Bear Valley Rd Ste 4 Apple Valley, CA 92308 US",34.47069588108122,-117.2457914536875
California,Arcadia,"400 S Baldwin Ave Ste FC-9 Arcadia, CA 91007 US",34.13572656223666,-118.04973664929628
California,Arroyo Grande,"1229 E Grand Ave Arroyo Grande, CA 93420 US",35.12017354508283,-120.60171216458565
California,Auburn,"2845 Bell Rd Ste A Auburn, CA 95603 US",38.941200800261605,-121.09614846331169
California,Azusa,"860 E Alosta Ave Azusa, CA 91702 US",34.12814641664687,-117.89157162822436
California,Bakersfield,"10510 Stockdale Hwy Bakersfield, CA 93311 US",35.35212176910199,-119.11911787270184
California,Bakersfield,"2630 Mt Vernon Avenue Suite 100 Bakersfield, CA 93306 US",35.39223261450192,-118.96794031141218
California,Bakersfield,"2701 Ming Ave Space 200 Bakersfield, CA 93304 US",35.33770689999999,-119.03516040000001
California,Bakersfield,"4580 Coffee Rd Bakersfield, CA 93308 US",35.40116339582047,-119.091834844792
California,Bakersfield,"4950 Stockdale Hwy Bakersfield, CA 93309 US",35.354530874548246,-119.05705893741705
California,Bakersfield,"5321 Gosford Rd Bakersfield, CA 93313 US",35.306521838937286,-119.09252875520805
California,Baldwin Hills,"3939 Crenshaw Blvd Ste A Baldwin Hills, CA 90008 US",34.01328442374881,-118.33662499830109
California,Baldwin Park,"13916 Garvey Ave Baldwin Park, CA 91706 US",34.069396000000005,-117.97208
California,Banning,"300 S Highland Springs Ave Ste 11A Banning, CA 92220 US",33.9238641,-116.94544270000002
California,Barstow,"2590 High Point Pkwy Barstow, CA 92311 US",34.8528123628865,-117.082796711455
California,Berkeley,"1050 Gilman St Berkeley, CA 94710 US",37.879393370779965,-122.29632448178829
California,Berkeley,"2225 Shattuck Ave Berkeley, CA 94704 US",37.868873291219295,-122.26748664723873
California,Berkeley,"2311 Telegraph Ave Berkeley, CA 94704 US",37.86838433691892,-122.25895608037399
California,Beverly Hills,"244 S Beverly Dr Beverly Hills, CA 90212 US",34.063323794483836,-118.39882933026638
California,Beverly Hills,"475 N Beverly Dr Beverly Hills, CA 90210 US",34.07132264504001,-118.40356168956656
California,Brea,"1065 Brea Mall Ste 2160 Brea, CA 92821 US",33.915677940492365,-117.8864340786871
California,Brea,"477 S Associated Rd Ste A Brea, CA 92821 US",33.91179690220889,-117.88205261146412
California,Brentwood,"5401 Lone Tree Way Ste 100 Brentwood, CA 94513 US",37.961260178266635,-121.74884971530331
California,Buena Park,"5976 Orangethorpe Ave Buena Park, CA 90620 US",33.85831428190834,-118.03057717907734
California,Burbank,"135 E Palm Ave Spc A2 Burbank, CA 91502 US",34.181958786654135,-118.31143974113995
California,Burbank,"4012 W Riverside Dr Burbank, CA 91505 US",34.1516477,-118.34335130000001
California,Cabazon,"48557 Morongo Trail Cabazon, CA 92230 US",33.923277399999996,-116.80533870000001
California,Camarillo,"660 Ventura Blvd Unit 500 Camarillo, CA 93010 US",34.21725346260006,-119.06555787396223
California,Campbell,"1815 S Bascom Ave Campbell, CA 95008 US",37.29088001186664,-121.93205873037395
California,Canoga Park,"6600 Topanga Canyon Blvd Unit FC09 Canoga Park, CA 91303 US",34.19,-118.60255
California,Capitola,"1955 41st Ave Ste A5 Capitola, CA 95010 US",36.97793296544234,-121.96629033430656
California,Carlsbad,"2505 Palomar Airport Rd Ste 100 Carlsbad, CA 92011 US",33.12805531775516,-117.27045117880392
California,Carlsbad,"3416 Via Mercato Ste 110 Carlsbad, CA 92009 US",33.081846051416996,-117.23594035921002
California,Carson,"20420 Avalon Blvd Ste A Carson, CA 90746 US",33.846571303188675,-118.26345516132488
California,Castro Valley,"3369 Castro Valley Blvd Castro Valley, CA 94546 US",37.695348082920106,-122.07682173834326
California,Cerritos,"10826 Alondra Blvd Cerritos, CA 90703 US",33.88592808196876,-118.1020101865082
California,Cerritos,"12560 Artesia Blvd Cerritos, CA 90703 US",33.872791481596124,-118.06421767787731
California,Cerritos,"459 Los Cerritos Mall Cerritos, CA 90703 US",33.8619,-118.092552
California,Chatsworth,"9175 De Soto Ave Chatsworth, CA 91311 US",34.237524151973574,-118.5891350291506
California,Chico,"1960 E 20th St Ste 100 Chico, CA 95928 US",39.72754269084902,-121.80506296936574
California,Chico,"620 Mangrove Ave Chico, CA 95926 US",39.73437615123794,-121.83515019816492
California,Chino,"12188 Central Ave Chino, CA 91710 US",34.03190485597059,-117.69030120491085
California,Chino Hills,"13920 City Center Dr Ste 4005 Chino Hills, CA 91709 US",34.0006695,-117.7316068
California,Chula Vista,"2290 Otay Lakes Rd 100 Chula Vista, CA 91915 US",32.64715651821109,-116.96557457182972
California,Chula Vista,"569 H St Chula Vista, CA 91910 US",32.631538330080154,-117.0880960495063
California,Chula Vista,"720 Otay Lakes Rd Chula Vista, CA 91910 US",32.646182,-117.002625
California,Citrus Heights,"5851 Sunrise Blvd Citrus Heights, CA 95610 US",38.6720411,-121.27203279999999
California,City Of Industry,"15495 Valley Blvd City Of Industry, CA 91746 US",34.0219656,-117.95959350000001
California,City Of Industry,"17501 Colima Rd Ste C City Of Industry, CA 91748 US",33.991186,-117.9246994
California,Claremont,"885 S Indian Hill Blvd Claremont, CA 91711 US",34.079562,-117.719517
California,Clovis,"1210 Shaw Ave Ste 101 Clovis, CA 93612 US",36.808164513576024,-119.6936528581836
California,Clovis,"1840 Herndon Ave Clovis, CA 93611 US",36.837102806014755,-119.6829132847252
California,Colma,"990 Serramonte Blvd Ste D Colma, CA 94014 US",37.671192136135346,-122.46439892638864
California,Commerce,"150 Citadel Dr Commerce, CA 90040 US",34.005728000000005,-118.152961
California,Compton,"1759 S Alameda St Ste 104 Compton, CA 90220 US",33.87653521836164,-118.2178387895666
California,Concord,"2002 Salvio St Ste A Concord, CA 94520 US",37.9768843,-122.03561780000001
California,Concord,"785 Oak Grove Rd Ste E1 Concord, CA 94518 US",37.936932899999995,-122.02482859999998
California,Corona,"1160 E Ontario Ave Ste 101 Corona, CA 92881 US",33.84761569537094,-117.54381688956663
California,Corona,"2560 Tuscany St Ste 102 Corona, CA 92881 US",33.823651,-117.5165168
California,Costa Mesa,"2300 Harbor Blvd Ste L1 Costa Mesa, CA 92626 US",33.6580777,-117.9187307
California,Costa Mesa,"260 Bristol St Costa Mesa, CA 92626 US",33.66787924308129,-117.88292481349184
California,Costa Mesa,"468 E 17th St Costa Mesa, CA 92627 US",33.629424900000004,-117.90954380000001
California,Culver City,"4114 Sepulveda Blvd Suite G Culver City, CA 90230 US",34.007161815291546,-118.41262312546246
California,Culver City,"6000 Sepulveda Blvd Ste 3236 Culver City, CA 90230 US",33.9854146,-118.39330690000001
California,Culver City,"6150 W Slauson Ave 106 Culver City, CA 90230 US",33.98811135886199,-118.39300704814138
California,Culver City,"9512 Culver Blvd Culver City, CA 90232 US",34.0233754,-118.39433829999999
California,Cupertino,"10385 S De Anza Blvd Cupertino, CA 95014 US",37.31726503354268,-122.03278998505787
California,Cupertino,"20688 Homestead Rd Cupertino, CA 95014 US",37.33731505459836,-122.03648371994059
California,Cypress,"6859 Katella Ave Cypress, CA 90630 US",33.8036646,-118.01243659999999
California,Daly City,"213 Westlake Ctr Daly City, CA 94015 US",37.7014805,-122.48236866
California,Danville,"33 Railroad Ave Danville, CA 94526 US",37.82315928914039,-122.00409490062908
California,Davis,"227 E St Ste 1 Davis, CA 95616 US",38.5440526,-121.7415034
California,Del Mar,"2710 Via De La Valle Ste 290 Del Mar, CA 92014 US",32.981286594324196,-117.24979818185976
California,Diamond Bar,"235 S Diamond Bar Blvd Ste B Diamond Bar, CA 91765 US",34.020877575226734,-117.81055878105349
California,Downey,"8500 Firestone Blvd Downey, CA 90241 US",33.9378076569092,-118.12955238646722
California,Downey,"8890 Apollo Way Ste A Downey, CA 90242 US",33.922229044251125,-118.13154774014572
California,Dublin,"5240 Dublin Blvd Ste S2J Dublin, CA 94568 US",37.70561684178781,-121.89083598834328
California,Dublin,"7020 Amador Plaza Rd Dublin, CA 94568 US",37.70637316166656,-121.92911820179428
California,El Cajon,"225 Jamacha Rd El Cajon, CA 92019 US",32.794036199999994,-116.93481899999999
California,El Cerrito,"9901 San Pablo Ave El Cerrito, CA 94530 US",37.89920809436757,-122.3023088717756
California,El Segundo,"307 N Pacific Coast Hwy Unit B El Segundo, CA 90245 US",33.9196429750764,-118.39646644508913
California,Elk Grove,"4730 Elk Grove Blvd Ste 110 Elk Grove, CA 95758 US",38.40832,-121.449308
California,Elk Grove,"7440 Laguna Blvd Ste 124 Elk Grove, CA 95758 US",38.4231808,-121.4155253
California,Encinitas,"268 N El Camino Real Encinitas, CA 92024 US",33.05221414764947,-117.26155619596021
California,Escondido,"1201 E Valley Pkwy Ste A Escondido, CA 92027 US",33.130322653305605,-117.06659018800501
California,Escondido,"1282 Auto Park Way Ste A Escondido, CA 92029 US",33.113014851997406,-117.10103903834325
California,Escondido,"200 E Via Rancho Pkwy Ste 455 Escondido, CA 92025 US",33.071038,-117.065973
California,Eureka,"2626 Broadway Street Suite 100 Eureka, CA 95501 US",40.7842726,-124.18361090000002
California,Fair Oaks,"5223 Hazel Ave Fair Oaks, CA 95628 US",38.66156367871051,-121.22605489490637
California,Fairfield,"1586 Gateway Blvd Ste B Fairfield, CA 94533 US",38.261633262094044,-122.05847163374688
California,Folsom,"1001 E Bidwell St Ste 106 Folsom, CA 95630 US",38.6694922,-121.1559255
California,Folsom,"2379 Iron Point Rd Ste 120 Folsom, CA 95630 US",38.645006275338716,-121.12336725425827
California,Fontana,"10515 Sierra Ave D Fontana, CA 92337 US",34.0627057,-117.4350364
California,Fontana,"16595 Sierra Lakes Pkwy Ste 100 Fontana, CA 92336 US",34.1385361,-117.4413977
California,Foothill Ranch,"26552 Towne Centre Dr Foothill Ranch, CA 92610 US",33.67950658806537,-117.66868187607479
California,Foster City,"2019 Chess Dr Foster City, CA 94404 US",37.562540203832256,-122.28064386932886
California,Fountain Valley,"17150 Brookhurst St Ste E Fountain Valley, CA 92708 US",33.714169899999995,-117.9540216
California,Fountain Valley,"18951 Brookhurst St Fountain Valley, CA 92708 US",33.68759248664302,-117.95451643741707
California,Fremont,"2760 Mowry Ave Fremont, CA 94538 US",37.55439779051461,-121.98171172607478
California,Fremont,"44029 Osgood Rd 106 Fremont, CA 94539 US",37.51104648073672,-121.9407045100329
California,Fremont,"5565 Auto Mall Pkwy Fremont, CA 94538 US",37.50434624597707,-121.97563680350912
California,Fresno,"3520 N Blackstone Ave Ste 102 Fresno, CA 93726 US",36.78161964568193,-119.7900766214958
California,Fresno,"4424 W Shaw Ave Fresno, CA 93722 US",36.809423820285076,-119.87181903191185
California,Fresno,"4978 N Cedar Ave Fresno, CA 93726 US",36.8081309228704,-119.75344405147962
California,Fresno,"5128 N Palm Ave Fresno, CA 93704 US",36.8110901,-119.8079561
California,Fresno,"80 E Nees Ave Fresno, CA 93720 US",36.85213062086552,-119.78899949694159
California,Fullerton,"101 E Orangethorpe Ave Ste A Fullerton, CA 92832 US",33.859725096408425,-117.9238282525704
California,Fullerton,"501 N State College Blvd Ste A Fullerton, CA 92831 US",33.874571303771816,-117.89017259877664
California,Garden Grove,"9737 Chapman Ave Ste A Garden Grove, CA 92841 US",33.788840752076446,-117.96322514508915
California,Gardena,"1755 W Artesia Blvd Gardena, CA 90248 US",33.873472344157946,-118.3088412521496
California,Gilroy,"6955 Camino Arroyo Ste 70 Gilroy, CA 95020 US",37.00297748618978,-121.55199715368748
California,Glendale,"1135 Glendale Galleria Suite FC-12 Glendale, CA 91210 US",34.145123999999996,-118.259326
California,Glendale,"132 N Glendale Ave Glendale, CA 91206 US",34.14745710452632,-118.24634196073058
California,Glendale,"155 N Brand Blvd Glendale, CA 91203 US",34.14795064352478,-118.25529353628349
California,Glendora,"1365 E Gladstone St Ste 700 Glendora, CA 91740 US",34.116364083478324,-117.8356347144007
California,Gold River,"2350 Sunrise Blvd Ste 3 Gold River, CA 95670 US",38.61703934520703,-121.26894929933836
California,Goleta,"270 Storke Rd Ste F Goleta, CA 93117 US",34.42917694680606,-119.8694057122686
California,Granada Hills,"16959 Devonshire St Granada Hills, CA 91344 US",34.25774798768706,-118.5020815711813
California,Hanford,"366 N 12th Ave Ste 113 Hanford, CA 93230 US",36.327476827217744,-119.67329958895492
California,Hawthorne,"5330 W Rosecrans Ave Hawthorne, CA 90250 US",33.90123578697386,-118.37322521000648
California,Hemet,"2465 W Florida Ave Hemet, CA 92545 US",33.74715564751028,-116.9975101082838
California,Hermosa Beach,"1439 Pacific Coast Hwy Hermosa Beach, CA 90254 US",33.86533148472044,-118.39348661381166
California,Hesperia,"9770 Mariposa Rd Hesperia, CA 92345 US",34.427957,-117.37835
California,Huntington Beach,"16241 Beach Blvd Huntington Beach, CA 92647 US",33.726848923164056,-117.98969228282068
California,Huntington Beach,"7101 Yorktown Ave #100 Huntington Beach, CA 92648 US",33.68070597247496,-118.00434687881871
California,Imperial Beach,"801 Palm Ave Imperial Beach, CA 91932 US",32.583602564038,-117.1154485898486
California,Inglewood,"2944 West Imperial Hwy. Inglewood, CA 90303 US",33.9307059,-118.32558329999999
California,Inglewood,"3421 W Century Blvd Inglewood, CA 90303 US",33.94656227495007,-118.33218297298164
California,Irvine,"3955 Irvine Blvd Irvine, CA 92602 US",33.72352160975807,-117.77145642620678
California,Irvine,"3966 Barranca Pkwy Ste B Irvine, CA 92606 US",33.6854646,-117.8111745
California,Irvine,"4255 Campus Dr Ste A116 Irvine, CA 92612 US",33.64954032113868,-117.83907287874548
California,Irvine,"6424 Irvine Blvd Irvine, CA 92620 US",33.69833318594014,-117.74094540918287
California,Irvine,"731 Spectrum Center Dr Irvine, CA 92618 US",33.65076778673915,-117.74288414416293
California,La Canada Flintridge,"895 Foothill Blvd Ste A La Canada Flintridge, CA 91011 US",34.2035553021316,-118.19775441532688
California,La Habra,"1202 S Idaho St Ste A La Habra, CA 90631 US",33.91679033475907,-117.95886346154207
California,La Jolla,"8657 Villa La Jolla Dr Ste 209 La Jolla, CA 92037 US",32.865734,-117.232143
California,La Mesa,"8005 Fletcher Pkwy La Mesa, CA 91942 US",32.77361313869,-117.02695971336595
California,La Quinta,"79174 Highway 111 Ste 101 La Quinta, CA 92253 US",33.710716,-116.2832098
California,La Verne,"2298 Foothill Blvd Ste C La Verne, CA 91750 US",34.11205096859536,-117.76224672293085
California,Lafayette,"3518 Mt Diablo Blvd Ste F Lafayette, CA 94549 US",37.89320838385394,-122.11811986871719
California,Laguna Niguel,"27221 La Paz Rd Ste H Laguna Niguel, CA 92677 US",33.56805089522741,-117.70855873098566
California,Laguna Niguel,"32391 Golden Lantern Ste A Laguna Niguel, CA 92677 US",33.492622600000004,-117.6981154
California,Lake Forest,"22379 El Toro Rd Lake Forest, CA 92630 US",33.63796530943036,-117.6806010030881
California,Lake Forest,"23645 El Toro Road Lake Forest, CA 92630 US",33.618825783657925,-117.70345915116064
California,Lakewood,"5310 Lakewood Blvd Lakewood, CA 90712 US",33.854145981105354,-118.14194237629259
California,Lancaster,"855 W. Avenue K. Suite 101 Lancaster, CA 93534 US",34.675182,-118.1473502
California,Lebec,"5602 Dennis McCarthy Dr Ste B Lebec, CA 93243 US",34.98650931128791,-118.94631826994056
California,Livermore,"3238 Livermore Outlets Dr Livermore, CA 94551 US",37.698463200000006,-121.8449893
California,Livermore,"4691 1st St Livermore, CA 94551 US",37.6990748,-121.74167959999998
California,Lodi,"2310 Tienda Dr Ste 200 Lodi, CA 95242 US",38.1167581,-121.30258290000002
California,Lodi,"2601 Reynolds Ranch Pkwy Ste 140 Lodi, CA 95240 US",38.1007584,-121.26711920000001
California,Long Beach,"1800 Ximeno Ave Long Beach, CA 90815 US",33.79012665654251,-118.13868055828381
California,Long Beach,"245 Pine Ave Ste 190 Long Beach, CA 90802 US",33.770147975849525,-118.19266047015526
California,Long Beach,"6324 E Pacific Coast Hwy Ste A Long Beach, CA 90803 US",33.759875,-118.11483500000001
California,Los Angeles,"10250 Santa Monica Blvd Ste FC2 Los Angeles, CA 90067 US",34.058031,-118.41966799999999
California,Los Angeles,"1077 Broxton Ave Los Angeles, CA 90024 US",34.061058613094744,-118.44631431715572
California,Los Angeles,"110 S Fairfax Ave Ste A12 Los Angeles, CA 90036 US",34.073700332765725,-118.36094683888962
California,Los Angeles,"1122 W 6th St 101 Los Angeles, CA 90017 US",34.0543205,-118.26320690000001
California,Los Angeles,"11690 San Vicente Blvd Los Angeles, CA 90049 US",34.05350633181874,-118.46487593252176
California,Los Angeles,"11711 National Blvd Los Angeles, CA 90064 US",34.022681490352895,-118.4391796765184
California,Los Angeles,"1460 Vine St Los Angeles, CA 90028 US",34.09734687431174,-118.32636564723872
California,Los Angeles,"2134 W Sunset Blvd Ste F Los Angeles, CA 90026 US",34.077145374346536,-118.26476045157143
California,Los Angeles,"301 N Larchmont Blvd Los Angeles, CA 90004 US",34.0764487,-118.3239423
California,Los Angeles,"301 W Olympic Blvd Ste A Los Angeles, CA 90015 US",34.042015,-118.25841000000001
California,Los Angeles,"3183 Wilshire Blvd Ste 195 Los Angeles, CA 90010 US",34.062043200000005,-118.290865
California,Los Angeles,"3748 S Figueroa St Los Angeles, CA 90007 US",34.016955555470794,-118.28258402025507
California,Los Angeles,"4550 W Pico Blvd Ste C1301 Los Angeles, CA 90019 US",34.0481825,-118.33601217
California,Los Angeles,"5047 Eagle Rock Blvd Los Angeles, CA 90041 US",34.138332433303944,-118.21472379467069
California,Los Angeles,"5550 Wilshire Blvd Ste 101B Los Angeles, CA 90036 US",34.06211334855455,-118.35019592271921
California,Los Angeles,"601 W 7th St Los Angeles, CA 90017 US",34.04759612692327,-118.25664718579831
California,Los Angeles,"6719 La Tijera Blvd Ste A&B Los Angeles, CA 90045 US",33.9788835,-118.370701
California,Los Angeles,"7101 Melrose Ave Los Angeles, CA 90046 US",34.08362649308188,-118.3443386895666
California,Los Angeles,"7660 W Sunset Blvd Los Angeles, CA 90046 US",34.0978471129027,-118.35690521268083
California,Los Angeles,"8420 Beverly Blvd Los Angeles, CA 90048 US",34.07313567,-118.37276533
California,Los Gatos,"640 Blossom Hill Rd Los Gatos, CA 95032 US",37.23535350416661,-121.96365672110028
California,Madera,"2180 W Cleveland Ave Ste 104 Madera, CA 93637 US",36.974021941219185,-120.08301113121536
California,Malibu,"3822 Cross Creek Rd Unit 3834 Malibu, CA 90265 US",34.036158,-118.68482900000001
California,Manteca,"1442 Hulsey Way Manteca, CA 95336 US",37.79631039976567,-121.19301733313456
California,Marina,"140 General Stillwell Drive Suite 106 Marina, CA 93933 US",36.66588128255013,-121.80972461674023
California,Marina Del Rey,"4718 Admiralty Way Marina Del Rey, CA 90292 US",33.979174,-118.4383297
California,Martinez,"1061 Arnold Dr Martinez, CA 94553 US",37.994762435151145,-122.10585776070695
California,Menifee,"30024 Haun Rd Ste 130 Menifee, CA 92584 US",33.68456530437326,-117.17496204295696
California,Merced,"3110 R St Ste A Merced, CA 95348 US",37.31977990890728,-120.48614440335558
California,Millbrae,"135 S El Camino Real Millbrae, CA 94030 US",37.596642874817725,-122.38616887789247
California,Milpitas,"246 Great Mall Dr Ste 246 Milpitas, CA 95035 US",37.41575562692226,-121.89755758631577
California,Mira Loma,"12411 Limonite Ave Ste 600 Mira Loma, CA 91752 US",33.97667219672287,-117.55285768220905
California,Mission Hills,"10384 Sepulveda Blvd Ste 2E Mission Hills, CA 91345 US",34.25942,-118.46659070000001
California,Mission Viejo,"25523 Marguerite Pkwy Ste A Mission Viejo, CA 92692 US",33.592456,-117.660366
California,Mission Viejo,"27750 Crown Valley Pkwy Mission Viejo, CA 92691 US",33.559430658968246,-117.67142648344976
California,Mission Viejo,"Vc10 Shops At Mission Viejo Mission Viejo, CA 92691 US",33.557971492152284,-117.6689722662411
California,Modesto,"1801 McHenry Ave Ste B Modesto, CA 95350 US",37.67089836322028,-120.9946327764062
California,Modesto,"3401 Dale Rd Ste 650 Modesto, CA 95356 US",37.68870917570512,-121.05397590868586
California,Monrovia,"608 W Huntington Dr Monrovia, CA 91016 US",34.13980863005088,-118.01247076711643
California,Montclair,"9177 Central Ave Ste B Montclair, CA 91763 US",34.08735747390883,-117.68910175613422
California,Montebello,"545 N Montebello Blvd Ste B Montebello, CA 90640 US",34.018975299999994,-118.1059054
California,Monterey,"500 Del Monte Ctr Ste 30 Monterey, CA 93940 US",36.58351079602785,-121.89678568496998
California,Monterey,"560 Munras Ave Ste 20 Monterey, CA 93940 US",36.59696784159582,-121.89450361394216
California,Monterey Park,"2180 S Atlantic Blvd Suite B Monterey Park, CA 91754 US",34.03839617176134,-118.14455450980438
California,Moorpark,"806 E Los Angeles Ave. Moorpark, CA 93021 US",34.278874,-118.8665098
California,Moreno Valley,"12625 Frederick St Ste S-1 Moreno Valley, CA 92553 US",33.93697901084461,-117.2618174240078
California,Morgan Hill,"775 Cochrane Rd Ste 140 Morgan Hill, CA 95037 US",37.15120417259024,-121.65604422441992
California,Mountain View,"1039 El Monte Ave Ste A Mountain View, CA 94040 US",37.390652405377395,-122.09440156430868
California,Mountain View,"2400 Charleston Rd Mountain View, CA 94043 US",37.4218453291052,-122.09651837949751
California,Murrieta,"40940 California Oaks Rd Ste A Murrieta, CA 92562 US",33.5683063848896,-117.20468239847946
California,Napa,"1715 Trancas St Suite D Napa, CA 94558 US",38.3212999,-122.3059614
California,Napa,"304 Soscol Ave Ste F Napa, CA 94559 US",38.28588119085403,-122.27434205735756
California,National City,"404 Mile Of Cars Way National City, CA 91950 US",32.66055955059648,-117.1055656270026
California,Newark,"34883 Newark Blvd Newark, CA 94560 US",37.55115907630892,-122.05144880393186
California,Newport Beach,"1322 Bison Ave Newport Beach, CA 92660 US",33.63897764137414,-117.8600891346731
California,Newport Beach,"3101 Newport Blvd Newport Beach, CA 92663 US",33.6152648852506,-117.93063838245148
California,Norco,"1409 Hamner Ave Norco, CA 92860 US",33.902656,-117.56189499999999
California,North Hollywood,"13075 Victory Blvd Spc 102 North Hollywood, CA 91606 US",34.18809,-118.41698999999998
California,North Hollywood,"5240 Lankershim Blvd North Hollywood, CA 91601 US",34.1661600822382,-118.37501567104816
California,Northridge,"19332 Nordhoff St Northridge, CA 91324 US",34.2346925,-118.55515290000001
California,Northridge,"8420 Balboa Blvd 110 Northridge, CA 91325 US",34.223551,-118.5019409
California,Northridge,"9160 Reseda Blvd Northridge, CA 91324 US",34.23697270172239,-118.53570619413168
California,Novato,"880 De Long Ave Novato, CA 94945 US",38.10599116178466,-122.56960896073052
California,Oakland,"3017 Broadway Oakland, CA 94611 US",37.81919,-122.26258500000002
California,Oakland,"3271 Lakeshore Ave Oakland, CA 94610 US",37.81076741599637,-122.24476638808744
California,Oakland,"8460 Edgewater Dr Ste C Oakland, CA 94621 US",37.737940786182094,-122.19746573745556
California,Oceanside,"2611 Vista Way Ste A Oceanside, CA 92054 US",33.181893,-117.33164
California,Oceanside,"4111 Oceanside Blvd Ste 103 Oceanside, CA 92056 US",33.205653064520334,-117.28861079569788
California,Oceanside,"495 College Blvd Ste A Oceanside, CA 92057 US",33.245213451838396,-117.29050765091336
California,Ontario,"1 Mills Cir Ste FC4 Ontario, CA 91764 US",34.073101,-117.552031
California,Ontario,"2200 S Grove Ave Ste 104 Ontario, CA 91761 US",34.03373896280914,-117.62892868773157
California,Orange,"2202 N Tustin St Ste A Orange, CA 92865 US",33.82580291158203,-117.83640855889551
California,Orange,"3440 E Chapman Ave Orange, CA 92869 US",33.787170245544765,-117.81656088159728
California,Oroville,"325 Oroville Dam Blvd Suite E1 Oroville, CA 95965 US",39.49757019320775,-121.57234387204487
California,Oxnard,"1291 S Victoria Ave Oxnard, CA 93035 US",34.188414,-119.222122
California,Oxnard,"369 W Esplanade Dr Oxnard, CA 93036 US",34.2340585,-119.17861740000001
California,Pacific Palisades,"15207 W Sunset Blvd Pacific Palisades, CA 90272 US",34.046596,-118.524413
California,Palm Desert,"34100 Monterey Ave 100 Palm Desert, CA 92211 US",33.801446689642624,-116.38747067484036
California,Palm Desert,"72333 Highway 111 Ste A Palm Desert, CA 92260 US",33.7281369,-116.40305049999999
California,Palm Springs,"2465 E Palm Canyon Dr Ste 1110 Palm Springs, CA 92264 US",33.800772096449144,-116.52167565167817
California,Palmdale,"1125 W Rancho Vista Blvd Ste B Palmdale, CA 93551 US",34.6023208,-118.1503435
California,Palo Alto,"180 El Camino Real Ste 15A Palo Alto, CA 94304 US",37.44481458900919,-122.16927148831822
California,Palo Alto,"2675 El Camino Real Palo Alto, CA 94306 US",37.42387416998631,-122.14306001409534
California,Panorama City,"7940 Van Nuys Blvd # 2A Panorama City, CA 91402 US",34.21576549591313,-118.4484124987124
California,Paramount,"15754 Paramount Blvd A Paramount, CA 90723 US",33.8895507,-118.15984920000001
California,Pasadena,"1687 E Colorado Blvd Pasadena, CA 91106 US",34.1462581,-118.11557959999999
California,Pasadena,"246 S Lake Ave Pasadena, CA 91101 US",34.14161412024798,-118.13191377852155
California,Pasadena,"3409 E Foothill Blvd Pasadena, CA 91107 US",34.151687162182554,-118.08020075602523
California,Paso Robles,"98 Niblick Rd Paso Robles, CA 93446 US",35.614783491487046,-120.6833899971
California,Perris,"1870 N Perris Blvd Perris, CA 92571 US",33.80745746473947,-117.2265905485969
California,Petaluma,"401 Kenilworth Dr Ste 710 Petaluma, CA 94952 US",38.24360598292279,-122.62638934384842
California,Pico Rivera,"8888 Whittier Blvd Pico Rivera, CA 90660 US",34.00121277753509,-118.084295939847
California,Pinole,"2696 Pinole Valley Rd Pinole, CA 94564 US",37.995844880693774,-122.28616963049593
California,Pittsburg,"4418 Century Blvd Pittsburg, CA 94565 US",38.005543685158585,-121.83947117605857
California,Placentia,"1474 N Kraemer Blvd Ste A3 Placentia, CA 92870 US",33.887538899999996,-117.8627577
California,Placerville,"3987 Missouri Flat Rd Ste 390 Placerville, CA 95667 US",38.71319049321305,-120.84009296658495
California,Pleasant Hill,"552 Contra Costa Blvd Ste 110 Pleasant Hill, CA 94523 US",37.97882255642107,-122.06682087194211
California,Pleasant Hill,"60 Crescent Dr Ste G Pleasant Hill, CA 94523 US",37.945835200000005,-122.0617206
California,Pleasanton,"6654 Koll Center Pkwy Ste 330 Pleasanton, CA 94566 US",37.6589742,-121.897972
California,Pomona,"785 Rio Rancho Rd Ste 300 Pomona, CA 91766 US",34.03369167184923,-117.75679611288011
California,Porterville,"1174 W Henderson Ave Ste B Porterville, CA 93257 US",36.080879100000004,-119.04357749999998
California,Poway,"13495 Poway Rd Poway, CA 92064 US",32.95490609620121,-117.03890350249391
California,Rancho Cordova,"2878 Zinfandel Dr Ste A Rancho Cordova, CA 95670 US",38.59431543959226,-121.28856367792721
California,Rancho Cucamonga,"10811 Foothill Blvd Rancho Cucamonga, CA 91730 US",34.10618342316279,-117.56885958219362
California,Rancho Cucamonga,"11334 4th St Ste 101 Rancho Cucamonga, CA 91730 US",34.07764976353122,-117.55757129295695
California,Rancho Cucamonga,"7879 Monticello Ave Rancho Cucamonga, CA 91739 US",34.110306994392225,-117.53548142270182
California,Rancho Santa Margarita,"22245 El Paseo Ste C Rancho Santa Margarita, CA 92688 US",33.639114539934354,-117.59409620985576
California,Redding,"961 Dana Dr Ste 160 Redding, CA 96003 US",40.585336942860884,-122.35400461331209
California,Redlands,"27511 San Bernardino Ave Ste B Redlands, CA 92374 US",34.073994434860715,-117.20505341226844
California,Redlands,"635 Orange St Redlands, CA 92374 US",34.061169,-117.18281999999999
California,Redondo Beach,"1430 S Pacific Coast Hwy Redondo Beach, CA 90277 US",33.821682621174155,-118.38514218711988
California,Redwood City,"861 Middlefield Rd Redwood City, CA 94063 US",37.485819899999996,-122.2289647
California,Rialto,"1314 S Riverside Ave 4B Rialto, CA 92376 US",34.0772722,-117.37080970000001
California,Rialto,"186 E Easton St Ste A Rialto, CA 92376 US",34.13477400873257,-117.36932463011198
California,Riverbank,"2207 Claribel Rd Ste A Riverbank, CA 95367 US",37.711644005618155,-120.95793705694071
California,Riverside,"3510 Tyler St Riverside, CA 92503 US",33.90711401311614,-117.4582640656414
California,Riverside,"3525 Riverside Plaza Dr Ste 204 Riverside, CA 92506 US",33.955580299999994,-117.389443
California,Riverside,"8956 Trautwein Rd Ste 100 Riverside, CA 92508 US",33.8903167,-117.32428940000001
California,Rocklin,"5194 Commons Dr Ste 101 Rocklin, CA 95677 US",38.80463574925882,-121.20656128662053
California,Rohnert Park,"6325 Commerce Blvd Rohnert Park, CA 94928 US",38.34732644821982,-122.71012806688213
California,Rolling Hills Estates,"4C Peninsula Ctr Rolling Hills Estates, CA 90274 US",33.7761393,-118.37578909999998
California,Rosemead,"3616 Rosemead Blvd Rosemead, CA 91770 US",34.07458922642114,-118.07220788252356
California,Roseville,"1136 Galleria Blvd Ste 160 Roseville, CA 95678 US",38.77010543776368,-121.26476193559931
California,Roseville,"3988 Douglas Blvd Ste 140 Roseville, CA 95661 US",38.74314520000001,-121.2274527
California,Roseville,"781 Pleasant Grove Blvd Ste 140 Roseville, CA 95678 US",38.7895085668169,-121.28090681840268
California,Sacramento,"1601 Broadway Ste 300 Sacramento, CA 95818 US",38.561654499999996,-121.49182859999999
California,Sacramento,"1729 Howe Ave Sacramento, CA 95825 US",38.59735987605298,-121.4158702082838
California,Sacramento,"1831 Capitol Ave Sacramento, CA 95811 US",38.57402706388792,-121.48275713189452
California,Sacramento,"2517 Fair Oaks Blvd Sacramento, CA 95825 US",38.575616499999995,-121.4033345
California,Sacramento,"2800 Del Paso Road Suite 100 Sacramento, CA 95835 US",38.655529569080045,-121.52395433636384
California,Sacramento,"3328 El Camino Ave Ste 300 Sacramento, CA 95821 US",38.6100294,-121.38580990000001
California,Sacramento,"3830 Truxel Rd Ste 300 Sacramento, CA 95834 US",38.638676094361614,-121.50498536258293
California,Sacramento,"4001 Freeport Blvd Ste 102 Sacramento, CA 95822 US",38.537791095588325,-121.49239254447129
California,Sacramento,"5040 Auburn Blvd Ste A Sacramento, CA 95841 US",38.66020923057192,-121.34704147761272
California,Sacramento,"5738 Folsom Blvd Sacramento, CA 95819 US",38.557712,-121.43667859999998
California,Sacramento,"615 David J Stern Walk Ste 130 Sacramento, CA 95814 US",38.5806059,-121.4986251
California,Sacramento,"8124 Delta Shores Cir S Sacramento, CA 95832 US",38.46504960000001,-121.49229380000001
California,Salinas,"1748 N Main St Salinas, CA 93906 US",36.71701510032351,-121.65393674938831
California,San Bernardino,"1092 E Hospitality Ln Ste B San Bernardino, CA 92408 US",34.069252980682066,-117.26190170053064
California,San Bruno,"1150 El Camino Real Ste 197 San Bruno, CA 94066 US",37.637204100000005,-122.4172493
California,San Carlos,"1135 Industrial Rd Ste C San Carlos, CA 94070 US",37.50220845635966,-122.24637262417464
California,San Clemente,"806 Avenida Pico Ste D San Clemente, CA 92673 US",33.44339123209546,-117.61372755729354
California,San Diego,"101 W Broadway Ste 150 San Diego, CA 92101 US",32.7150214,-117.16429579999999
California,San Diego,"1025 Camino De La Reina Ste 2 San Diego, CA 92108 US",32.7679405,-117.1531596
California,San Diego,"10550 Craftsman Way Ste 180 San Diego, CA 92127 US",33.02013968053748,-117.11107023715459
California,San Diego,"11134 Rancho Carmel Dr Ste 104 San Diego, CA 92128 US",32.979771747918235,-117.08269000307577
California,San Diego,"1504 Garnet Ave San Diego, CA 92109 US",32.799715385310286,-117.24262253617752
California,San Diego,"2750 Bauer Road San Diego, CA 92145 US",32.88780078187407,-117.13142984785372
California,San Diego,"3680 Rosecrans St San Diego, CA 92110 US",32.75119540858461,-117.20560606468264
California,San Diego,"3881 Valley Centre Dr San Diego, CA 92130 US",32.93772358950651,-117.23012450267805
California,San Diego,"5500 Campanile Dr San Diego, CA 92182 US",32.773947,-117.070094
California,San Diego,"5650 Balboa Ave Ste &106 San Diego, CA 92111 US",32.820499457084594,-117.17898082729819
California,San Diego,"6083 El Cajon Blvd San Diego, CA 92115 US",32.76128861846487,-117.0666150433999
California,San Diego,"7081 Clairemont Mesa Blvd Ste 103 San Diego, CA 92111 US",32.831583765641234,-117.16460263069126
California,San Diego,"734 University Ave Ste C San Diego, CA 92103 US",32.74865863390252,-117.1577837220492
California,San Diego,"8250 Mira Mesa Blvd Ste G San Diego, CA 92126 US",32.9137603,-117.1458472
California,San Diego,"8750 Genesee Ave Ste 240 San Diego, CA 92122 US",32.8695554,-117.2154937
California,San Fernando,"1100 Truman St San Fernando, CA 91340 US",34.28358071628897,-118.44139870118244
California,San Francisco,"121 4th St # 135 San Francisco, CA 94103 US",37.78430291464379,-122.40361731532688
California,San Francisco,"1523 Sloat Blvd San Francisco, CA 94132 US",37.73245288257204,-122.48998301707606
California,San Francisco,"211 Sutter St San Francisco, CA 94104 US",37.7896709,-122.4039997
California,San Francisco,"2675 Geary Boulevard San Francisco, CA 94118 US",37.78205287353228,-122.44653641055487
California,San Francisco,"3251 20th Ave Spc OP183 San Francisco, CA 94132 US",37.727645700000004,-122.4765986
California,San Francisco,"400 Howard St Ste 110 San Francisco, CA 94105 US",37.7889155,-122.3960781
California,San Francisco,"50 California St San Francisco, CA 94111 US",37.794259600000004,-122.39742439999999
California,San Francisco,"525 Market Street San Francisco, CA 94105 US",37.79046409288761,-122.39929950399244
California,San Francisco,"865 Market St Ste C10 San Francisco, CA 94103 US",37.78413352073621,-122.40694442249372
California,San Jose,"1 S Market St Ste 40 San Jose, CA 95113 US",37.33502373179572,-121.89259345360108
California,San Jose,"1095 E Brokaw Rd Ste 70 San Jose, CA 95131 US",37.3830937935385,-121.89675409783308
California,San Jose,"1110 Blossom Hill Rd Ste 30 San Jose, CA 95118 US",37.249831730340034,-121.87634604181228
California,San Jose,"1566 Monterey Hwy Ste 10 San Jose, CA 95110 US",37.314442,-121.87140600000001
California,San Jose,"1645 Saratoga Ave Ste 10 San Jose, CA 95129 US",37.29292404334293,-121.99117377852156
California,San Jose,"2007 Camden Ave Ste 50 San Jose, CA 95124 US",37.26219627621831,-121.93178962662428
California,San Jose,"2855 Stevens Creek Blvd Suite 2471 San Jose, CA 95050 US",37.32615899084708,-121.94394082015276
California,San Jose,"2990 E Capitol Expy Ste 40 San Jose, CA 95148 US",37.3312751,-121.8120879
California,San Jose,"361 N Capitol Ave Ste 30 San Jose, CA 95133 US",37.371147222180795,-121.84490282047204
California,San Jose,"369 S Winchester Blvd San Jose, CA 95128 US",37.321716266020005,-121.95055006271473
California,San Jose,"4180 N 1st St Unit 60 San Jose, CA 95134 US",37.416196742396224,-121.95498650248129
California,San Jose,"540 Newhall Dr Ste 10 San Jose, CA 95110 US",37.3505886,-121.92218270000001
California,San Jose,"5670 Cottle Rd Ste 30 San Jose, CA 95123 US",37.24865130878421,-121.80287968553823
California,San Jose,"975 The Alameda Ste 10 San Jose, CA 95126 US",37.33190681788295,-121.9086599122678
California,San Leandro,"1505 E 14th St San Leandro, CA 94577 US",37.72336091000679,-122.15393846504055
California,San Luis Obispo,"297 Madonna Rd San Luis Obispo, CA 93405 US",35.262614635093776,-120.6776980849703
California,San Marcos,"575 Grand Ave Ste 101 San Marcos, CA 92078 US",33.137033,-117.17627
California,San Mateo,"1050 Park Pl San Mateo, CA 94403 US",37.544695792603406,-122.2914919827747
California,San Pedro,"940 N Western Ave Unit F San Pedro, CA 90732 US",33.751044,-118.307344
California,San Rafael,"345 3rd St San Rafael, CA 94901 US",37.96956572128692,-122.5167520404928
California,San Rafael,"5800 Northgate Dr Ste 154 San Rafael, CA 94903 US",38.0042166,-122.544202
California,San Ramon,"132 Sunset Dr C San Ramon, CA 94583 US",37.7616424,-121.9626094
California,San Ramon,"2421 San Ramon Valley Blvd San Ramon, CA 94583 US",37.77515170504685,-121.97801796374807
California,Sand City,"2140 California Ave Sand City, CA 93955 US",36.62262582038521,-121.84366126380631
California,Santa Ana,"1313 W 17th St Ste A Santa Ana, CA 92706 US",33.76036780466999,-117.88610817392521
California,Santa Ana,"2773 N Main St Santa Ana, CA 92705 US",33.77336674902728,-117.86701247985776
California,Santa Ana,"3705 S Bristol St Santa Ana, CA 92704 US",33.69835440817147,-117.88499861869984
California,Santa Ana,"629 S Harbor Blvd Santa Ana, CA 92704 US",33.73867472818457,-117.91965691960245
California,Santa Barbara,"3851 State St Ste A Santa Barbara, CA 93105 US",34.439503969029175,-119.749159864462
California,Santa Clara,"2002 El Camino Real Ste C Santa Clara, CA 95050 US",37.3520612,-121.96018079999999
California,Santa Clara,"3249 Coronado Pl Santa Clara, CA 95054 US",37.380899504759384,-121.97446557423972
California,Santa Clara,"3952 Rivermark Plz Santa Clara, CA 95054 US",37.39480489533197,-121.946407394792
California,Santa Clarita,"19085 Golden Valley Rd Unit 105 Santa Clarita, CA 91387 US",34.394448700000005,-118.46276100000001
California,Santa Cruz,"550 River St Ste A Santa Cruz, CA 95060 US",36.982613719479865,-122.02936357270187
California,Santa Maria,"232 E Betteravia Rd Santa Maria, CA 93454 US",34.92132229700554,-120.43301217177566
California,Santa Monica,"1218 3rd Street Promenade Santa Monica, CA 90401 US",34.0177215,-118.4990088
California,Santa Monica,"2025 Wilshire Blvd Santa Monica, CA 90403 US",34.031985802324826,-118.48289062822435
California,Santa Rosa,"2182 Santa Rosa Ave Santa Rosa, CA 95407 US",38.417914,-122.71238400000001
California,Santa Rosa,"336A Coddingtown Ctr Santa Rosa, CA 95401 US",38.458189000000004,-122.73005800000001
California,Santee,"9828 Mission Gorge Rd Ste C Santee, CA 92071 US",32.8410211,-116.98141229999999
California,Seal Beach,"12359 Seal Beach Blvd Seal Beach, CA 90740 US",33.782980697390315,-118.07234152637191
California,Selma,"3120 Floral Ave 108A Selma, CA 93662 US",36.5770809467151,-119.63236487017956
California,Sherman Oaks,"14006 Riverside Dr Ste 249B Sherman Oaks, CA 91423 US",34.156895736770004,-118.437300503608
California,Sherman Oaks,"14708 Ventura Blvd Ste B Sherman Oaks, CA 91403 US",34.151536799999995,-118.45361809999999
California,Signal Hill,"959 E. Spring Street Signal Hill, CA 90755 US",33.8119251213897,-118.18127129861408
California,Simi Valley,"1263 Simi Town Center Way Ste H2 Simi Valley, CA 93065 US",34.284106799999996,-118.7753668
California,South Gate,"4709 Firestone Blvd South Gate, CA 90280 US",33.952512,-118.1856175
California,South Lake Tahoe,"3640-A Lake Tahoe Blvd Suite 100 South Lake Tahoe, CA 96150 US",38.94798660000001,-119.95803070000001
California,Stockton,"10710 Trinity Pkwy Ste A Stockton, CA 95219 US",38.054047,-121.37476699999999
California,Stockton,"4940 Pacific Ave Stockton, CA 95207 US",37.994668901660795,-121.31343740444309
California,Studio City,"12175 Ventura Blvd Studio City, CA 91604 US",34.14355872066686,-118.39770930372141
California,Sunnyvale,"324 W El Camino Real # B-3 Sunnyvale, CA 94087 US",37.3677565,-122.03615400000001
California,Tarzana,"18700 Ventura Blvd Ste 130 Tarzana, CA 91356 US",34.17039740108223,-118.54119355487137
California,Temecula,"26440 Ynez Rd Ste B Temecula, CA 92591 US",33.524088507564876,-117.15898745674131
California,Temecula,"32195 Temecula Pkwy Ste 105 Temecula, CA 92592 US",33.481128999999996,-117.096994
California,Temple City,"5809 Rosemead Blvd Temple City, CA 91780 US",34.104635951365104,-118.07389619479198
California,Thousand Oaks,"162 W Hillcrest Dr Ste 300 Thousand Oaks, CA 91360 US",34.1822146,-118.88498290000001
California,Thousand Oaks,"935 Broadbeck Dr Ste C Thousand Oaks, CA 91320 US",34.191161891893024,-118.9376642600124
California,Torrance,"21300 Hawthorne Blvd Ste A Torrance, CA 90503 US",33.834988127866936,-118.35280468949357
California,Torrance,"24631 Crenshaw Blvd Ste A Torrance, CA 90505 US",33.8018953,-118.32879840000001
California,Torrance,"3525 W Carson St Ste VC02 Torrance, CA 90503 US",33.83295,-118.34929299999999
California,Tracy,"2512 Naglee Rd Tracy, CA 95304 US",37.75546914528877,-121.46494850107537
California,Tulare,"1108 E Prosperity Ave Tulare, CA 93274 US",36.22621558670599,-119.32893804605008
California,Turlock,"3090 Countryside Dr Turlock, CA 95380 US",37.520645,-120.88092900000001
California,Tustin,"13348 Newport Ave Tustin, CA 92780 US",33.74511975475779,-117.8146216464283
California,Tustin,"15040 Kensington Park Dr Tustin, CA 92782 US",33.712719,-117.817008
California,Ukiah,"596 E Perkins St Ukiah, CA 95482 US",39.15164538001051,-123.19935967361069
California,Union City,"30920 Dyer St Union City, CA 94587 US",37.602459390316284,-122.06906675183508
California,Upland,"1053 E 19th St Ste A Upland, CA 91784 US",34.132357462973445,-117.63666496810549
California,Upland,"1092 N Mountain Ave Upland, CA 91786 US",34.108382301763804,-117.66990272822436
California,Vacaville,"1620 E Monte Vista Ave Ste 101 Vacaville, CA 95688 US",38.36690410069812,-121.96241685072005
California,Valencia,"24405 Town Center Dr Valencia, CA 91355 US",34.41791932165203,-118.56143095337295
California,Valencia,"28102 Newhall Ranch Rd Valencia, CA 91355 US",34.442657297289536,-118.5737745575242
California,Vallejo,"1195 Admiral Callaghan Ln Vallejo, CA 94591 US",38.13695774353621,-122.2150147826651
California,Van Nuys,"5600 Van Nuys Blvd Van Nuys, CA 91401 US",34.17231389842011,-118.44830875031454
California,Ventura,"1145 S Victoria Ave Ste F Ventura, CA 93003 US",34.2643651,-119.2126867
California,Ventura,"488 S Mills Rd Ste 104 Ventura, CA 93003 US",34.26674003395353,-119.2460874911045
California,Visalia,"4219 S Mooney Blvd Ste B Visalia, CA 93277 US",36.292363988344675,-119.31439473346643
California,Vista,"30 Main St Ste 100 Vista, CA 92083 US",33.200884,-117.244767
California,Walnut,"21710 Valley Blvd Ste A Walnut, CA 91789 US",34.02788976764153,-117.83385521810551
California,Walnut Creek,"1158 Locust St # D-2A Walnut Creek, CA 94596 US",37.8956359,-122.061034
California,Walnut Park,"2110 E Florence Ave Walnut Park, CA 90255 US",33.9744431419157,-118.23350551717932
California,West Covina,"143 N Barranca St Ste A West Covina, CA 91791 US",34.0730989,-117.88211270000001
California,West Covina,"427 Plaza Dr West Covina, CA 91790 US",34.071107299999994,-117.9327713
California,West Sacramento,"775 Ikea Ct Ste 100 West Sacramento, CA 95605 US",38.5899901,-121.54964199999999
California,Westlake Village,"5754 Lindero Canyon Rd Westlake Village, CA 91362 US",34.15371791770557,-118.79654041226877
California,Westminster,"6777 Westminster Blvd Ste A Westminster, CA 92683 US",33.759404167070336,-118.00757723282072
California,Whittier,"10120 Carmenita Rd Whittier, CA 90605 US",33.941058210661204,-118.04621113497028
California,Whittier,"15528 Whittier Blvd Unit A Whittier, CA 90603 US",33.94439989978713,-117.99482644846209
California,Woodland Hills,"5430 Topanga Canyon Blvd Woodland Hills, CA 91367 US",34.16982121134922,-118.60528527244793
California,Woodland Hills,"6443 Canoga Ave Woodland Hills, CA 91367 US",34.187712,-118.5980033
California,Yuba City,"1005 Gray Ave Yuba City, CA 95991 US",39.1425828,-121.6297616
Colorado,Arvada,"12550 W 64th Ave Arvada, CO 80004 US",39.8113870486136,-105.13967820960728
Colorado,Arvada,"5324 Wadsworth Byp Unit G Arvada, CO 80002 US",39.79394227375821,-105.08027198374693
Colorado,Arvada,"8797 Wadsworth Blvd Arvada, CO 80003 US",39.8561260657296,-105.08244000828381
Colorado,Aurora,"1205 S Havana St Unit B1 Aurora, CO 80012 US",39.69457177229466,-104.8662978604334
Colorado,Aurora,"13700 E Colfax Ave Unit A Aurora, CO 80011 US",39.73989855196353,-104.82777096440066
Colorado,Aurora,"15280 E Iliff Ave Aurora, CO 80014 US",39.674365202796544,-104.81065555398465
Colorado,Aurora,"2300 S Parker Rd Unit B Aurora, CO 80231 US",39.67438799359947,-104.86957713591516
Colorado,Aurora,"24100 E Commons Ave Ste 101 Aurora, CO 80016 US",39.6042842,-104.7074551
Colorado,Aurora,"3455 Salida St Unit D Aurora, CO 80011 US",39.76402984439589,-104.77470535421776
Colorado,Aurora,"4205 S Buckley Rd Aurora, CO 80013 US",39.64020420778057,-104.79204735446892
Colorado,Aurora,"6710 S Cornerstar Way Ste A Aurora, CO 80016 US",39.5945685,-104.80639599999999
Colorado,Boulder,"1650 28th St Unit 1224 Boulder, CO 80301 US",40.016409100000004,-105.2578739
Colorado,Boulder,"919 Pearl St Boulder, CO 80302 US",40.017374992177366,-105.28339114106359
Colorado,Brighton,"2046 Prairie Center Pkwy Brighton, CO 80601 US",39.9570906,-104.7758057
Colorado,Castle Rock,"5642 Allen Way Ste 104 Castle Rock, CO 80108 US",39.41447192362294,-104.86400426898176
Colorado,Centennial,"12073 E Arapahoe Rd Ste 160 Centennial, CO 80112 US",39.595436482745576,-104.84878740643136
Colorado,Centennial,"20209 E Smoky Hill Rd Centennial, CO 80015 US",39.611241369091566,-104.75260376408829
Colorado,Centennial,"8255 S Chester St Suite 100 Centennial, CO 80112 US",39.56723688545382,-104.88050550398464
Colorado,Colorado Springs,"1370 Garden Of The Gods Rd Colorado Springs, CO 80907 US",38.89705693862437,-104.85264341264832
Colorado,Colorado Springs,"17 S Tejon St Colorado Springs, CO 80903 US",38.8331152,-104.82337290000001
Colorado,Colorado Springs,"2130 Southgate Rd Ste 100 Colorado Springs, CO 80906 US",38.801685600000006,-104.81913879999999
Colorado,Colorado Springs,"3026 New Center Pt Colorado Springs, CO 80922 US",38.87706800791987,-104.71876095461369
Colorado,Colorado Springs,"5079 N Academy Blvd Colorado Springs, CO 80918 US",38.904331974959575,-104.77416895595184
Colorado,Colorado Springs,"5102 N Nevada Ave Ste 170 Colorado Springs, CO 80918 US",38.90253350713101,-104.81810723064963
Colorado,Colorado Springs,"7818 N Academy Blvd Colorado Springs, CO 80920 US",38.946363734555284,-104.8022977300768
Colorado,Colorado Springs,"895 N Academy Blvd Colorado Springs, CO 80909 US",38.845470899999995,-104.7565472
Colorado,Commerce City,"5988 Dahlia St Commerce City, CO 80022 US",39.804007450899896,-104.9308275472387
Colorado,Denver,"140 Steele St Denver, CO 80206 US",39.71855993156765,-104.94956138220905
Colorado,Denver,"1480 16th St Denver, CO 80202 US",39.7503934,-104.9991429
Colorado,Denver,"1600 California St Unit 7 Denver, CO 80202 US",39.74538157729719,-104.99160396565809
Colorado,Denver,"1644 E Evans Ave Denver, CO 80210 US",39.678287972907725,-104.96780777696743
Colorado,Denver,"2500 E Colfax Ave Denver, CO 80206 US",39.739954962720255,-104.9572269184027
Colorado,Denver,"2760 S Colorado Blvd Unit M Denver, CO 80222 US",39.66641697071331,-104.93988694049278
Colorado,Denver,"3600 W 32nd Ave Ste A Denver, CO 80211 US",39.76198306036484,-105.03484099047398
Colorado,Denver,"371 E Alameda Ave Denver, CO 80209 US",39.71150569725132,-104.9830927877142
Colorado,Denver,"4490 Peoria St Denver, CO 80239 US",39.7776664478146,-104.84643275090887
Colorado,Denver,"550 N Broadway Ste A Denver, CO 80203 US",39.7254866850594,-104.98701717881352
Colorado,Denver,"7350 E Hampden Ave Unit B-2 Denver, CO 80231 US",39.652405,-104.9032
Colorado,Denver,"7400 E 29th Ave Denver, CO 80238 US",39.75785136019702,-104.9015615788361
Colorado,Denver,"745 Colorado Blvd Ste A Denver, CO 80206 US",39.72831432715485,-104.94099338871557
Colorado,Denver,"8100 W Crestline Ave Unit A1 Denver, CO 80123 US",39.616552700889024,-105.09044221010478
Colorado,Denver,"820 S Monaco Pkwy Unit 1B Denver, CO 80224 US",39.70179929627504,-104.9124563696248
Colorado,Englewood,"333 W Hampden Ave Ste 110 Englewood, CO 80110 US",39.65358492458046,-104.99242666258293
Colorado,Federal Heights,"10320 Federal Blvd Unit 100 Federal Heights, CO 80260 US",39.8842261,-105.02470829999999
Colorado,Fort Collins,"2120 E Harmony Rd Ste 107 Fort Collins, CO 80528 US",40.52377696162291,-105.03682653305448
Colorado,Fort Collins,"649 S College Ave Ste A Fort Collins, CO 80525 US",40.57830131811463,-105.0774329656282
Colorado,Grand Junction,"2504 Highway 6 And 50 Ste 300 Grand Junction, CO 81505 US",39.083436,-108.58792749999999
Colorado,Greeley,"807 17th St Ste A Greeley, CO 80631 US",40.41203572235011,-104.69148192212143
Colorado,Greenwood Village,"6570 S Yosemite St Ste D Greenwood Village, CO 80111 US",39.59683885728897,-104.88808277120951
Colorado,Greenwood Village,"8000 E Belleview Ave Ste F20 Greenwood Village, CO 80111 US",39.623731229303054,-104.89606705286793
Colorado,Highlands Ranch,"2209 W Wildcat Reserve Pkwy Unit E1A Highlands Ranch, CO 80129 US",39.537149,-105.01386200000002
Colorado,Highlands Ranch,"9579 S University Blvd Lot 3A Highlands Ranch, CO 80126 US",39.5424541,-104.9399959
Colorado,Lafayette,"548 W South Boulder Rd Unit D Lafayette, CO 80026 US",39.986385664405816,-105.09794396611215
Colorado,Lakewood,"14255 W Colfax Ave Ste A Lakewood, CO 80401 US",39.734100470237905,-105.15997528857099
Colorado,Lakewood,"145 Union Blvd Ste 103 Lakewood, CO 80228 US",39.71746050491897,-105.1336252505962
Colorado,Lakewood,"3170 S Wadsworth Blvd Lakewood, CO 80227 US",39.660728354367535,-105.080897562583
Colorado,Lakewood,"355 S Wadsworth Blvd Lakewood, CO 80226 US",39.7102963661781,-105.08214599999997
Colorado,Lakewood,"7355 W Colfax Ave Unit 103 Lakewood, CO 80214 US",39.74056109655933,-105.07830536467428
Colorado,Littleton,"12512 W Ken Caryl Ave Unit C Littleton, CO 80127 US",39.58031768885037,-105.13499231987998
Colorado,Littleton,"5699 S Broadway Littleton, CO 80121 US",39.61343789917304,-104.9883932901783
Colorado,Littleton,"7515 S University Blvd Littleton, CO 80122 US",39.58020650000002,-104.96132583374693
Colorado,Littleton,"8501 W Bowles Ave Ste 2020 Littleton, CO 80123 US",39.61190845208597,-105.09567326694186
Colorado,Lone Tree,"8515 Park Meadows Center Dr Space 252, Ste 3001 Lone Tree, CO 80124 US",39.562490000000004,-104.874908
Colorado,Lone Tree,"9500 Heritage Hills Cir Ste 700 Lone Tree, CO 80124 US",39.5369564,-104.87941699999999
Colorado,Longmont,"1100 Ken Pratt Blvd Ste B Longmont, CO 80501 US",40.15283134949024,-105.11109899938832
Colorado,Longmont,"1708 Main Street Longmont, CO 80501 US",40.189207,-105.101803
Colorado,Louisville,"375 McCaslin Blvd Ste D Louisville, CO 80027 US",39.96621596945101,-105.16397033843792
Colorado,Loveland,"1421 W Eisenhower Blvd Loveland, CO 80537 US",40.40752588139153,-105.09786383988113
Colorado,Loveland,"1569 Fall River Dr Ste 105 Loveland, CO 80538 US",40.4083052,-105.00772490000001
Colorado,Parker,"18400 Cottonwood Dr Ste 101 Parker, CO 80138 US",39.5584899,-104.7771484
Colorado,Parker,"18701 E Mainstreet Ste 1 Parker, CO 80134 US",39.518695034550845,-104.77040223558195
Colorado,Pueblo,"3230 N Elizabeth St Pueblo, CO 81008 US",38.303292,-104.614979
Colorado,Silverthorne,"247-C Rainbow St Unit G290 Silverthorne, CO 80498 US",39.630287419244226,-106.07142220468808
Colorado,Thornton,"815 Thornton Pkwy Thornton, CO 80229 US",39.871176873235825,-104.97624578605593
Colorado,Thornton,"951 E 120th Ave Unit A Thornton, CO 80233 US",39.91436710001901,-104.97505228674999
Colorado,Westminster,"14452 Orchard Pkwy Suite 300 Westminster, CO 80023 US",39.95919,-104.99359
Colorado,Westminster,"5160 W 120th Ave. Unit B Westminster, CO 80020 US",39.912141,-105.051381
Colorado,Westminster,"7303 Federal Blvd Unit 1 Westminster, CO 80030 US",39.8288063,-105.02550249999999
Colorado,Wheat Ridge,"3294 Youngfield St Ste A Wheat Ridge, CO 80033 US",39.7631512,-105.1400656
Connecticut,Branford,"2 Commercial Pkwy Branford, CT 06405 US",41.27731142213908,-72.82831742148959
Connecticut,Bridgeport,"275 E Main St Bridgeport, CT 06608 US",41.17842823720663,-73.18194729049281
Connecticut,Canton,"110 Albany Tpke Ste 301 Canton, CT 06019 US",41.82332322507213,-72.88322699772891
Connecticut,Danbury,"115 Mill Plain Rd Danbury, CT 06811 US",41.392482182817886,-73.52250704264242
Connecticut,Danbury,"7 Backus Ave Ste H100 Danbury, CT 06810 US",41.380326000000004,-73.47943000000001
Connecticut,Darien,"71 Post Rd Darien, CT 06820 US",41.09095263406827,-73.45564055398461
Connecticut,Darien,"I-95 Darien Nb Service Plaza Darien, CT 06820 US",41.080674200000004,-73.4614135
Connecticut,Enfield,"7 Hazard Ave Unit A Enfield, CT 06082 US",41.99055716434799,-72.58473316774234
Connecticut,Fairfield,"340 Grasmere Ave Ste 1 Fairfield, CT 06824 US",41.15703885362666,-73.24059272118132
Connecticut,Glastonbury,"140 Glastonbury Blvd Ste 4 Glastonbury, CT 06033 US",41.72037395884164,-72.62096590339256
Connecticut,Hamden,"2165 Dixwell Ave Ste 2 Hamden, CT 06514 US",41.36887694048814,-72.91832853559936
Connecticut,Manchester,"48 Hale Road Manchester, CT 06042 US",41.81280599999999,-72.52711699999998
Connecticut,Middletown,"808 Washington St Middletown, CT 06457 US",41.55468,-72.67984
Connecticut,Milford,"1319 Boston Post Rd Spc 4B Milford, CT 06460 US",41.23845336526143,-73.0354247760748
Connecticut,New Haven,"910 Chapel St New Haven, CT 06510 US",41.30639517209296,-72.92693399222445
Connecticut,Newington,"3575 Berlin Tpke Unit B Newington, CT 06111 US",41.650065999999995,-72.729361
Connecticut,Riverside,"1233 E Putnam Ave Riverside, CT 06878 US",41.04242180892854,-73.57832704834891
Connecticut,Shelton,"701 Bridgeport Ave Shelton, CT 06484 US",41.275881975542774,-73.12399875520805
Connecticut,Southington,"785 Queen St Unit 1 Southington, CT 06489 US",41.638174,-72.87337009999999
Connecticut,Wallingford,"1094 N Colony Rd Ste 20 Wallingford, CT 06492 US",41.497039,-72.806854
Connecticut,West Hartford,"1457 New Britain Ave West Hartford, CT 06110 US",41.72472959416484,-72.75709768217338
Connecticut,West Hartford,"966 Farmington Ave West Hartford, CT 06107 US",41.7618893868671,-72.74307215985726
Connecticut,West Haven,"354 Saw Mill Rd Unit B West Haven, CT 06516 US",41.27118782688272,-72.97258820765478
Connecticut,Wethersfield,"1084 Silas Deane Hwy Wethersfield, CT 06109 US",41.69268358085449,-72.65518356501956
Delaware,Dover,"1141 N Dupont Hwy Ste 101 Dover, DE 19901 US",39.18678446887631,-75.53655817470087
Delaware,Middletown,"657 Middletown Warwick Rd Middletown, DE 19709 US",39.445806320216654,-75.73467347927613
Delaware,New Castle,"115A S Dupont Hwy New Castle, DE 19720 US",39.66378445341222,-75.60687249570083
Delaware,Newark,"132 Christiana Mall 1481 Newark, DE 19702 US",39.677884000000006,-75.652284
Delaware,Newark,"136 E Main St Newark, DE 19711 US",39.68377823512398,-75.74772734634695
Delaware,Newark,"60 Geoffrey Dr Newark, DE 19713 US",39.68767491052315,-75.6524534861437
Delaware,Rehoboth Beach,"36453 Seaside Outlet Dr Rehoboth Beach, DE 19971 US",38.717843,-75.111239
Delaware,Wilmington,"2209 Concord Pike Wilmington, DE 19803 US",39.7902115,-75.5457651
Delaware,Wilmington,"3700 Kirkwood Hwy Wilmington, DE 19808 US",39.73293717615314,-75.63955922368905
Florida,Altamonte Springs,"400 W State Road 436 Altamonte Springs, FL 32714 US",28.661298307235594,-81.39668856209812
Florida,Apopka,"2201 E Semoran Blvd Apopka, FL 32703 US",28.673551495033866,-81.46992335735763
Florida,Aventura,"18815 Biscayne Blvd Aventura, FL 33180 US",25.95018503822516,-80.14567645491081
Florida,Boca Raton,"1666 N Federal Hwy Ste A Boca Raton, FL 33432 US",26.365541610858394,-80.07898699171112
Florida,Boca Raton,"2301 Glades Rd Ste 300 Boca Raton, FL 33431 US",26.368827400578603,-80.12805007095879
Florida,Boca Raton,"5560 N Military Trl Boca Raton, FL 33496 US",26.400853,-80.120509
Florida,Boca Raton,"7028 W Palmetto Park Rd Ste 106 Boca Raton, FL 33433 US",26.349511355304283,-80.15744495676324
Florida,Boca Raton,"9930 Glades Rd Ste F8 Boca Raton, FL 33434 US",26.366093,-80.20238
Florida,Boynton Beach,"1620 S Federal Hwy B Boynton Beach, FL 33435 US",26.513843100000003,-80.058808
Florida,Boynton Beach,"1780 N Congress Ave Ste 100 Boynton Beach, FL 33426 US",26.54267805290833,-80.09021870117033
Florida,Boynton Beach,"8790 Boynton Beach Blvd Bldg B1 Boynton Beach, FL 33472 US",26.527144099999997,-80.18605129999999
Florida,Bradenton,"1608 Cortez Rd W Bradenton, FL 34207 US",27.463184540263185,-82.57834493108193
Florida,Brandon,"103 Brandon Town Center Dr Brandon, FL 33511 US",27.938747769594823,-82.32362885613423
Florida,Brandon,"459 Brandon Town Center Mall Ste Fc Brandon, FL 33511 US",27.932463000000002,-82.32606899999999
Florida,Brandon,"829 E Bloomingdale Ave Brandon, FL 33511 US",27.893182399999997,-82.27239490000001
Florida,Brooksville,"13207 Cortez Blvd Brooksville, FL 34613 US",28.5342859,-82.50660359999999
Florida,Cape Coral,"2060 NE Pine Island Rd Cape Coral, FL 33909 US",26.67288626725691,-81.92853450273395
Florida,Cape Coral,"2207 Del Prado Blvd S Cape Coral, FL 33990 US",26.610982702781204,-81.94054500320021
Florida,Clearwater,"2537 Countryside Blvd Clearwater, FL 33761 US",28.014677340939592,-82.73444402941567
Florida,Clearwater,"2662 Gulf To Bay Blvd Clearwater, FL 33759 US",27.961145358138484,-82.72752726149133
Florida,Clearwater,"5360 E Bay Dr Clearwater, FL 33764 US",27.916835974551216,-82.7314448417162
Florida,Clermont,"1495 E Hwy 50 Ste 200 Clermont, FL 34711 US",28.545698702412185,-81.73009849431195
Florida,Coral Springs,"1775 N University Dr Coral Springs, FL 33071 US",26.252865595198628,-80.25231916791013
Florida,Coral Springs,"4220 N State Road 7 Coral Springs, FL 33073 US",26.283486,-80.20263100000001
Florida,Coral Springs,"4600 N University Dr Coral Springs, FL 33067 US",26.2874054,-80.25111319999999
Florida,Cutler Bay,"19151 S Dixie Hwy Unit 25 Cutler Bay, FL 33157 US",25.589630800000002,-80.3586636
Florida,Dania Beach,"1780 Stirling Rd Ste 106 Dania Beach, FL 33004 US",26.048696640210967,-80.1595036162068
Florida,Davenport,"1091 Posner Blvd Davenport, FL 33837 US",28.2252006,-81.643959
Florida,Davie,"2110 S University Dr Davie, FL 33324 US",26.094269,-80.250265
Florida,Davie,"5796 South University Dr Ste 103 Davie, FL 33328 US",26.047042315061336,-80.25105429780949
Florida,Daytona Beach,"1425-A Cornerstone Blvd Daytona Beach, FL 32117 US",29.218870199999998,-81.0970811
Florida,Daytona Beach,"2400 W International Speedway Blvd Ste 730 Daytona Beach, FL 32114 US",29.1808274953128,-81.08063715580238
Florida,Deerfield Beach,"777 S Federal Hwy Deerfield Beach, FL 33441 US",26.30708740220849,-80.09320808252356
Florida,Deland,"2335 S. Woodland Blvd. Deland, FL 32720 US",28.987153204555412,-81.29931060508511
Florida,Delray Beach,"4789 W Atlantic Ave Delray Beach, FL 33445 US",26.4582383,-80.12016009999999
Florida,Delray Beach,"520 Linton Blvd Ste 101 Delray Beach, FL 33444 US",26.439193989839612,-80.07845578886025
Florida,Destin,"4281 Legendary Dr # J-114 Destin, FL 32541 US",30.3899771,-86.42493520000001
Florida,Doral,"2000 NW 87th Ave Ste 1 Doral, FL 33172 US",25.793446300000003,-80.33756740000001
Florida,Estero,"22941 Lyden Dr Estero, FL 33928 US",26.403546000000002,-81.811326
Florida,Fern Park,"103 State Road 436 Fern Park, FL 32730 US",28.659691100000003,-81.3407499
Florida,Fort Lauderdale,"1515 SE 17th St Ste 101 Fort Lauderdale, FL 33316 US",26.10086692868112,-80.12666718956659
Florida,Fort Lauderdale,"1736 N Federal Hwy Fort Lauderdale, FL 33305 US",26.1505645315278,-80.11888650267343
Florida,Fort Lauderdale,"2610 W Broward Blvd Ste 104 Fort Lauderdale, FL 33312 US",26.12128776223548,-80.17647565884374
Florida,Fort Lauderdale,"4850 N Federal Hwy Fort Lauderdale, FL 33308 US",26.18776079655633,-80.11555793005942
Florida,Fort Myers,"10010 University Plaza Drive Suite 102 Fort Myers, FL 33913 US",26.491833852496015,-81.78677409014573
Florida,Fort Myers,"12635 S Cleveland Ave Fort Myers, FL 33907 US",26.5586902,-81.87115399999998
Florida,Fort Myers,"8061 Dani Dr Ste 140 Fort Myers, FL 33966 US",26.6083701,-81.8105661
Florida,Ft Lauderdale,"6320 N Andrews Ave Ft Lauderdale, FL 33309 US",26.204786342170173,-80.14741756625307
Florida,Gainesville,"1432 W University Ave Gainesville, FL 32603 US",29.65229226196381,-82.34149667607767
Florida,Gainesville,"2225 NW 13th St Ste 100 Gainesville, FL 32609 US",29.67364120397084,-82.33867029289968
Florida,Gainesville,"3841 SW Archer Rd Unit A Gainesville, FL 32608 US",29.61940629219505,-82.38130672684524
Florida,Greenacres,"6714 Forest Hill Blvd Greenacres, FL 33413 US",26.648235577414606,-80.14615552532428
Florida,Hialeah,"18461 NW 67th Ave Hialeah, FL 33015 US",25.94126834905396,-80.30643628822202
Florida,Hialeah,"405 W 49th St Hialeah, FL 33012 US",25.867047,-80.29195
Florida,Hialeah,"7925 Hialeah Gardens Blvd Ste 1 Hialeah, FL 33018 US",25.89481690606795,-80.35074015027618
Florida,Hollywood,"1774 Sheridan St Hollywood, FL 33020 US",26.03305611548679,-80.1420688426424
Florida,Homestead,"2500 NE 10th Ct Homestead, FL 33033 US",25.479008795929524,-80.44192050166987
Florida,Jacksonville,"11113 San Jose Blvd Ste 101 Jacksonville, FL 32223 US",30.173556268870147,-81.62783786026854
Florida,Jacksonville,"13546 Beach Blvd Ste 1 Jacksonville, FL 32224 US",30.28711282555381,-81.46036844536275
Florida,Jacksonville,"13920 Old St Augustine Rd Ste 105 Jacksonville, FL 32258 US",30.14131050942163,-81.54639779028463
Florida,Jacksonville,"4865 Town Center Pkwy Ste 1 Jacksonville, FL 32246 US",30.25457633622738,-81.53278940693896
Florida,Jacksonville,"50 Riverside Ave Unit 705 Jacksonville, FL 32202 US",30.324076399999996,-81.6703194
Florida,Jacksonville,"790 Skymarks Dr Ste 101 Jacksonville, FL 32218 US",30.48142958497079,-81.63747585920999
Florida,Jacksonville,"8635 Blanding Blvd Ste 102 Jacksonville, FL 32244 US",30.19387122314084,-81.7384554919405
Florida,Jacksonville,"9395 Atlantic Blvd Jacksonville, FL 32225 US",30.31936527610545,-81.55489914239513
Florida,Jacksonville,"9671 Argyle Forest Blvd Jacksonville, FL 32222 US",30.196356,-81.829889
Florida,Jacksonville Beach,"1758 3rd St S Jacksonville Beach, FL 32250 US",30.27124704229885,-81.38887430491081
Florida,Jupiter,"6274 W Indiantown Rd Ste A Jupiter, FL 33458 US",26.934163,-80.13063129999999
Florida,Kissimmee,"3254 N John Young Pkwy Kissimmee, FL 34741 US",28.34558034082661,-81.42075173497028
Florida,Kissimmee,"3275 Vineland Rd Kissimmee, FL 34746 US",28.346371,-81.486212
Florida,Kissimmee,"6210 W Irlo Bronson Memorial Hwy Kissimmee, FL 34747 US",28.3321649,-81.5327309
Florida,Lake Mary,"4315 W Lake Mary Blvd Lake Mary, FL 32746 US",28.75567321255564,-81.35075833804609
Florida,Lake Worth,"6177 S Jog Rd Ste D15 Lake Worth, FL 33467 US",26.587601199999998,-80.14852789999998
Florida,Lakeland,"3434 S Florida Ave Lakeland, FL 33803 US",28.001671375003713,-81.95652422280466
Florida,Lakeland,"4204 US Hwy 98 N Ste 110 Lakeland, FL 33809 US",28.095837300000003,-81.9746955
Florida,Lakewood Ranch,"11715 State Road 70 E Lakewood Ranch, FL 34202 US",27.432129200000002,-82.42110339999998
Florida,Largo,"10160 Ulmerton Rd Largo, FL 33771 US",27.89409106603983,-82.7800365909149
Florida,Lauderhill,"5435 N University Dr Lauderhill, FL 33351 US",26.191549305741724,-80.25268509264242
Florida,Lutz,"25442 Sierra Center Boulevard Lutz, FL 33559 US",28.193343199999997,-82.39546870000001
Florida,Melbourne,"1563 W New Haven Ave Melbourne, FL 32904 US",28.078395002133185,-80.64752089079002
Florida,Melbourne,"2322 Harnett Dr Melbourne, FL 32940 US",28.23914143969696,-80.72848018019351
Florida,Miami,"10141 W Flagler St D100 Miami, FL 33174 US",25.769241600000004,-80.3598109
Florida,Miami,"10600 N Kendall Dr Miami, FL 33176 US",25.686263398185734,-80.36438580241202
Florida,Miami,"110 NW 42nd Ave Miami, FL 33126 US",25.772736060936122,-80.26398949277416
Florida,Miami,"13612 SW 88th St Miami, FL 33186 US",25.684546060632147,-80.41519647462161
Florida,Miami,"15221 SW 127th Avenue Miami, FL 33186 US",25.626496600000003,-80.3945468
Florida,Miami,"1700 NW 117th Place Suite 101 Miami, FL 33182 US",25.7899171,-80.38718440000001
Florida,Miami,"19565 Biscayne Blvd FH1 Miami, FL 33180 US",25.9580522,-80.14212090000001
Florida,Miami,"2200 SW 87th Ave Miami, FL 33165 US",25.749186841696304,-80.33610395455389
Florida,Miami,"2235 SW 37th Ave Miami, FL 33145 US",25.749312186500678,-80.25426375305847
Florida,Miami,"7230 NW 36th St 1 Miami, FL 33166 US",25.808823561272412,-80.31533221824446
Florida,Miami Lakes,"8000 NW 154th St Miami Lakes, FL 33016 US",25.912861175343586,-80.33091748189452
Florida,Miramar,"3231 SW 160th Ave Ste 101 Miramar, FL 33027 US",25.98021333798026,-80.35695227086677
Florida,Mount Dora,"19025 US Highway 441 Mount Dora, FL 32757 US",28.8247207707714,-81.64073361104509
Florida,Naples,"2085 Tamiami Trl N Naples, FL 34102 US",26.17227731470367,-81.80079516322962
Florida,Naples,"6821 Collier Blvd 101 Naples, FL 34114 US",26.065773999999998,-81.698679
Florida,Naples,"9100 Strada Pl Ste 2110 Naples, FL 34108 US",26.254102000000003,-81.8001898
Florida,New Port Richey,"3286 Word Way G1 New Port Richey, FL 34653 US",28.205312899999996,-82.6666684
Florida,North Miami,"14776 Biscayne Blvd North Miami, FL 33181 US",25.912530237601928,-80.15779178613366
Florida,North Port,"17019 Tamiami Trl North Port, FL 34287 US",27.0373333139289,-82.21619476901434
Florida,Ocala,"2645 SW College Rd Unit 103 Ocala, FL 34471 US",29.16710004882106,-82.16838951135895
Florida,Ocoee,"10149 W Colonial Dr Ocoee, FL 34761 US",28.552485712594574,-81.52695894995905
Florida,Orlando,"11513 Regency Village Dr Orlando, FL 32821 US",28.3933146,-81.4864466
Florida,Orlando,"11680 University Blvd Orlando, FL 32817 US",28.597174450405088,-81.21645094811504
Florida,Orlando,"12278 Narcoossee Rd Orlando, FL 32832 US",28.386892826547626,-81.24501851719663
Florida,Orlando,"12648 S Orange Blossom Trl Ste 30 Orlando, FL 32837 US",28.381284034476533,-81.40509368191186
Florida,Orlando,"1700 Sand Lake Rd Ste D110 Orlando, FL 32809 US",28.4496456,-81.4020285
Florida,Orlando,"2211 S Orange Ave Orlando, FL 32806 US",28.516782293701148,-81.37613156258294
Florida,Orlando,"2610 S Semoran Blvd Orlando, FL 32822 US",28.5142663,-81.3109937
Florida,Orlando,"2850 S Kirkman Rd Orlando, FL 32811 US",28.51208482493836,-81.4597723001491
Florida,Orlando,"2903 E Colonial Dr Orlando, FL 32803 US",28.553571,-81.346887
Florida,Orlando,"4200 Conroy Rd Ste N-257 Orlando, FL 32839 US",28.48512159025045,-81.43154115211485
Florida,Orlando,"464 N Alafaya Trl Ste 111 Orlando, FL 32828 US",28.553526489276155,-81.20656532479461
Florida,Orlando,"4724 Millenia Plaza Way Orlando, FL 32839 US",28.493020299999998,-81.42863129999999
Florida,Orlando,"6607 S Semoran Blvd Ste 108 Orlando, FL 32822 US",28.46763233493153,-81.30852624538629
Florida,Orlando,"7800 Dr Phillips Blvd Ste 100 Orlando, FL 32819 US",28.45059811632753,-81.48896473246526
Florida,Orlando,"8124 W. Irlo Bronson Highway Orlando, FL 34747 US",28.3464523,-81.61128479999998
Florida,Orlando,"9202 Jeff Fuqua Blvd Ste 1427 Orlando, FL 32827 US",28.435468,-81.301371
Florida,Ormond Beach,"1290 W Granada Blvd Ste 300 Ormond Beach, FL 32174 US",29.26379913634666,-81.10531615000002
Florida,Oviedo,"327 E Mitchell Hammock Rd 1021 Oviedo, FL 32765 US",28.6562891,-81.2033689
Florida,Palm Beach Gardens,"3101 Pga Blvd Ste L219 Palm Beach Gardens, FL 33410 US",26.8490078,-80.0851436
Florida,Palm Beach Gardens,"4655 Pga Blvd Bldg F Palm Beach Gardens, FL 33418 US",26.8387669503795,-80.10890162055226
Florida,Palm Beach Gardens,"5240 Donald Ross Rd Ste 130 Palm Beach Gardens, FL 33418 US",26.88254681591813,-80.11550597019061
Florida,Palm Coast,"5860 State Road 100 E Unit 200 Palm Coast, FL 32164 US",29.47629790068649,-81.19619296519619
Florida,Palm Harbor,"33121 US Highway 19 N Palm Harbor, FL 34684 US",28.07317466907305,-82.7382977190582
Florida,Panama City,"500 E 23rd St Panama City, FL 32405 US",30.1889939,-85.6538631
Florida,Panama City Beach,"100 S Pier Park Dr Ste 100 Panama City Beach, FL 32413 US",30.223832199999997,-85.872215
Florida,Pembroke Pines,"11041 Pines Blvd Ste 428 Pembroke Pines, FL 33026 US",26.00845191536144,-80.29500487577765
Florida,Pembroke Pines,"15880 Pines Blvd Pembroke Pines, FL 33027 US",26.00678298241768,-80.35630208374687
Florida,Pensacola,"1674 E Nine Mile Rd Ste A Pensacola, FL 32514 US",30.533120899999997,-87.2275807
Florida,Pinecrest,"12227 South Dixie Highway Pinecrest, FL 33156 US",25.65706049233349,-80.32749741359395
Florida,Pinellas Park,"3700 Park Blvd N Pinellas Park, FL 33781 US",27.838771062640056,-82.68466530022113
Florida,Plantation,"129 NW 136th Ave # A190 Plantation, FL 33325 US",26.12151288234434,-80.33068840393469
Florida,Plantation,"1760 N University Dr 2 Plantation, FL 33322 US",26.147191,-80.25638599999999
Florida,Pompano Beach,"2390 N Federal Hwy Ste 104 Pompano Beach, FL 33062 US",26.260656561863836,-80.09890992773741
Florida,Port Orange,"1731 Dunlawton Ave Ste 103 Port Orange, FL 32127 US",29.111368109173387,-81.02645685337295
Florida,Port Richey,"9203 US Highway 19 Port Richey, FL 34668 US",28.29081058897905,-82.7119125003145
Florida,Port Saint Lucie,"1768 SW Saint Lucie West Blvd Port Saint Lucie, FL 34986 US",27.31065261994452,-80.4064213527613
Florida,Saint Augustine,"1753 US Highway 1 S Saint Augustine, FL 32084 US",29.86960754507471,-81.32389500193709
Florida,Saint Cloud,"4351 13th St Saint Cloud, FL 34769 US",28.25254373591171,-81.31628410921002
Florida,Saint Petersburg,"1418 66th St N Saint Petersburg, FL 33710 US",27.785556724816235,-82.72892201989964
Florida,Saint Petersburg,"3540 4th St N Saint Petersburg, FL 33704 US",27.804670053176856,-82.63883005352375
Florida,Saint Petersburg,"780 4th St N Saint Petersburg, FL 33701 US",27.780136300000002,-82.6387503
Florida,Sanford,"1805 WP Ball Blvd Sanford, FL 32771 US",28.800225899999997,-81.3336244
Florida,Sarasota,"1707 S Tamiami Trl Sarasota, FL 34239 US",27.318109777692246,-82.5293882018351
Florida,Sarasota,"5354 Fruitville Rd Sarasota, FL 34232 US",27.337224,-82.463164
Florida,Sarasota,"97 N Cattlemen Rd Sarasota, FL 34243 US",27.387687815869647,-82.45813989871294
Florida,Seminole,"11241 Park Blvd Seminole, FL 33772 US",27.84161002377737,-82.79448579599801
Florida,South Miami,"6290 S Dixie Hwy South Miami, FL 33143 US",25.699524794387173,-80.2950114926424
Florida,Stuart,"2181 SE Federal Hwy Stuart, FL 34994 US",27.177970512677273,-80.2360664805057
Florida,Stuart,"2421 NW Federal Hwy Stuart, FL 34994 US",27.234784718273797,-80.26763416845246
Florida,Sunrise,"12801 W Sunrise Blvd Ofc F231 Sunrise, FL 33323 US",26.14989882011175,-80.32448515428177
Florida,Tallahassee,"1498 Apalachee Pkwy Unit 16 Tallahassee, FL 32301 US",30.43612513741435,-84.25839439999999
Florida,Tallahassee,"1801 W Tennessee St Tallahassee, FL 32304 US",30.44878968380273,-84.31106364035315
Florida,Tallahassee,"3425 Thomasville Rd Unit 1 Tallahassee, FL 32309 US",30.50443578421638,-84.24967576502969
Florida,Tallahassee,"699 W Gaines St Tallahassee, FL 32304 US",30.435311699999996,-84.29262170000001
Florida,Tampa,"12827 N Dale Mabry Hwy Tampa, FL 33618 US",28.063586551480032,-82.50338113492035
Florida,Tampa,"18019 Highwoods Preserve Pkwy Tampa, FL 33647 US",28.13128525751045,-82.36579343374694
Florida,Tampa,"2011 N Dale Mabry Hwy Tampa, FL 33607 US",27.960170100690004,-82.50500973341501
Florida,Tampa,"2223 N West Shore Blvd Ste FC 204 Tampa, FL 33607 US",27.964707553798213,-82.52085684014975
Florida,Tampa,"2576 E Fowler Ave Tampa, FL 33612 US",28.05487327921455,-82.42981195716997
Florida,Tampa,"309 N West Shore Blvd Tampa, FL 33609 US",27.947477795652127,-82.52395333804607
Florida,Tampa,"3696 W Gandy Blvd Tampa, FL 33611 US",27.89343930614048,-82.50586515828377
Florida,Tampa,"533 S Howard Ave Tampa, FL 33606 US",27.939684494344487,-82.48338686437711
Florida,Tampa,"7002 Gunn Hwy Ste 101 Tampa, FL 33625 US",28.066465534876016,-82.57050848675283
Florida,Tampa,"9466 W Linebaugh Ave Tampa, FL 33626 US",28.043468,-82.590389
Florida,Temple Terrace,"5114 E Fowler Ave Ste 101 Temple Terrace, FL 33617 US",28.0547369,-82.39909320000001
Florida,Vero Beach,"5855 20th St Unit 101 Vero Beach, FL 32966 US",27.638264447032622,-80.4479837274123
Florida,Wellington,"1000 S State Road 7 Ste 2 Wellington, FL 33414 US",26.663797,-80.20215300000001
Florida,West Palm Beach,"2380 Palm Beach Lakes Blvd West Palm Beach, FL 33409 US",26.708201000000003,-80.098556
Florida,Weston,"4477 Weston Rd # 79 Weston, FL 33331 US",26.067603,-80.363058
Florida,Windermere,"9100 Conroy Windermere Rd Ste 120 Windermere, FL 34786 US",28.493174100000005,-81.5092683
Florida,Winter Garden,"13599 W Colonial Dr Ste 101 Winter Garden, FL 34787 US",28.551525,-81.58541009999998
Florida,Winter Garden,"3317 Daniels Rd Ste 102 Winter Garden, FL 34787 US",28.520862925627803,-81.58684953378031
Florida,Winter Haven,"804 Cypress Gardens Blvd Winter Haven, FL 33880 US",28.003602586341753,-81.71751414785041
Florida,Winter Park,"525 S Orlando Ave Winter Park, FL 32789 US",28.593631990206827,-81.36531549502969
Florida,Winter Springs,"5637 Red Bug Lake Rd Winter Springs, FL 32708 US",28.646934499999997,-81.2700902
Georgia,Albany,"2630 Dawson Rd 1 Albany, GA 31707 US",31.6170158,-84.221878
Georgia,Alpharetta,"10910 Haynes Bridge Rd Alpharetta, GA 30022 US",34.05176246676509,-84.28630241563991
Georgia,Alpharetta,"5250 Windward Pkwy Ste 120 Alpharetta, GA 30004 US",34.090822677223464,-84.27493030209013
Georgia,Athens,"165 Alps Rd Athens, GA 30606 US",33.947373403855124,-83.40882517790988
Georgia,Atlanta,"1080 Peachtree St NE Ste 13C Atlanta, GA 30309 US",33.78399690677289,-84.38384297835364
Georgia,Atlanta,"11700 Spine Rd. 6000 N Terminal Pkwy- DF1 Atlanta, GA 30320 US",33.64221320000001,-84.4292545
Georgia,Atlanta,"123 Perimeter Ctr W Ste 500 Atlanta, GA 30346 US",33.9279656,-84.34420990000001
Georgia,Atlanta,"1401 Oxford Rd NE Atlanta, GA 30307 US",33.7885662,-84.326684
Georgia,Atlanta,"1745 Peachtree St NE Ste H Atlanta, GA 30309 US",33.801615500000004,-84.39275119999998
Georgia,Atlanta,"2020 Howell Mill Rd NW Ste 39 Atlanta, GA 30318 US",33.8101162,-84.4131588
Georgia,Atlanta,"2078 Henderson Mill Rd NE Atlanta, GA 30345 US",33.84586265851497,-84.25600602883429
Georgia,Atlanta,"2963 N Druid Hills Rd NE Atlanta, GA 30329 US",33.81468877374229,-84.31016042847524
Georgia,Atlanta,"2973 Cobb Pkwy SE # B Atlanta, GA 30339 US",33.88102857875902,-84.46140194291598
Georgia,Atlanta,"3393 Peachtree Rd Ste 1017A Atlanta, GA 30326 US",33.845309,-84.36135999999999
Georgia,Atlanta,"3424 Piedmont Rd NE Atlanta, GA 30305 US",33.84814155240244,-84.37417909201338
Georgia,Atlanta,"4400 Ashford Dunwoody Rd NE Ste 1385 Atlanta, GA 30346 US",33.923783917905816,-84.34106850934177
Georgia,Atlanta,"4600 Roswell Rd Unit B110 Atlanta, GA 30342 US",33.880987581738474,-84.3801342171446
Georgia,Atlanta,"540 17th Street NW 420 Atlanta, GA 30318 US",33.790978499999994,-84.4070716
Georgia,Atlanta,"718 Ponce De Leon Ave NE Atlanta, GA 30306 US",33.77392179723447,-84.36356532716769
Georgia,Augusta,"229 Robert C Daniel Jr Pkwy # A Augusta, GA 30909 US",33.490445799999996,-82.08004090000001
Georgia,Austell,"3999 Austell Rd Austell, GA 30106 US",33.855531,-84.5993014
Georgia,Buford,"3350 Buford Dr Ste B260 Buford, GA 30519 US",34.073119071673304,-83.98484861656759
Georgia,Canton,"2026 Cumming Hwy Ste 110 Canton, GA 30115 US",34.23665147381761,-84.45634731900049
Georgia,Chamblee,"5001 Peachtree Blvd Ste 1010 Chamblee, GA 30341 US",33.884559493961305,-84.31577334085944
Georgia,Columbus,"3201 Macon Rd 100 Columbus, GA 31906 US",32.482932,-84.942702
Georgia,Columbus,"5295 Whittlesey Blvd Ste 600 Columbus, GA 31909 US",32.54176918447279,-84.9503442909704
Georgia,Conyers,"1467 Highway 138 SE Conyers, GA 30013 US",33.651075932180035,-84.00914985491085
Georgia,Cumming,"905 Market Place Blvd Ste C Cumming, GA 30041 US",34.181216100794025,-84.1330584184027
Georgia,Dawsonville,"285 Marketplace Blvd. Dawsonville, GA 30534 US",34.348637200000006,-84.05000749999999
Georgia,Decatur,"198 W Ponce De Leon Ave Decatur, GA 30030 US",33.775257,-84.298713
Georgia,Douglasville,"9380 The Landing Dr Douglasville, GA 30135 US",33.7278339,-84.73766850000001
Georgia,Duluth,"11720 Medlock Bridge Rd Ste 135 Duluth, GA 30097 US",34.06743458487391,-84.1693788199085
Georgia,Duluth,"2040 Pleasant Hill Rd Duluth, GA 30096 US",33.95524015106256,-84.1310987699232
Georgia,Duluth,"2190 Peachtree Industrial Blvd 110 Duluth, GA 30097 US",34.0214559846354,-84.12027296747647
Georgia,East Point,"3330 Camp Creek Pkwy East Point, GA 30344 US",33.6573346,-84.4992978
Georgia,Fayetteville,"1135 Highway 85 N Ste E Fayetteville, GA 30214 US",33.4722595,-84.4428863
Georgia,Gainesville,"1134 Dawsonville Hwy Ste 100 Gainesville, GA 30501 US",34.303282200000005,-83.85868599999999
Georgia,Hinesville,"806 W Oglethorpe Hwy Unit A Hinesville, GA 31313 US",31.82191319999999,-81.5990953
Georgia,Kennesaw,"777 Townpark Ln NW Kennesaw, GA 30144 US",34.03541847770412,-84.57355248098565
Georgia,Kennesaw,"954 Ernest W Barrett Pkwy NW Ste 120 Kennesaw, GA 30144 US",34.00384741990944,-84.57924998900114
Georgia,Lawrenceville,"4885 Sugarloaf Pkwy Lawrenceville, GA 30044 US",33.95569583,-84.05474217
Georgia,Lawrenceville,"860 Duluth Hwy Ste 320 Lawrenceville, GA 30043 US",33.967096999999995,-84.022464
Georgia,Loganville,"4112 Atlanta Hwy Ste 300 Loganville, GA 30052 US",33.84487462056122,-83.90851404189516
Georgia,Macon,"120 Tom Hill Sr Blvd Ste 100 Macon, GA 31210 US",32.90075978429131,-83.68851949479199
Georgia,Marietta,"1281 Johnson Ferry Rd Ste 104 Marietta, GA 30068 US",33.9801472,-84.42462590000001
Georgia,Marietta,"3606 Sandy Plains Rd Marietta, GA 30066 US",34.037258,-84.46113199999999
Georgia,McDonough,"1442 Highway 20 W McDonough, GA 30253 US",33.42289817058108,-84.18719384938834
Georgia,Morrow,"2011 Mount Zion Rd Morrow, GA 30260 US",33.562695515038,-84.32466225520801
Georgia,Newnan,"1200 Highway 34 E B Newnan, GA 30265 US",33.39842,-84.74004000000001
Georgia,Norcross,"5175 Peachtree Pkwy # 1300-A Norcross, GA 30092 US",33.9801112,-84.2171085
Georgia,Norcross,"5485 Jimmy Carter Blvd. Suite 300 Norcross, GA 30093 US",33.9082515,-84.2057184
Georgia,Peachtree City,"101 City Cir Peachtree City, GA 30269 US",33.3965503,-84.59188809999999
Georgia,Pooler,"6 Mill Creek Cir Ste A Pooler, GA 31322 US",32.14018919111177,-81.24343997702158
Georgia,Roswell,"10800 Alpharetta Hwy Ste 288 Roswell, GA 30076 US",34.0439237,-84.3422444
Georgia,Sandy Springs,"5920 Roswell Rd Ste B101 Sandy Springs, GA 30328 US",33.91633,-84.37962900000001
Georgia,Savannah,"1801 E Victory Dr Ste 101 Savannah, GA 31404 US",32.043855769009234,-81.07206736043338
Georgia,Savannah,"318 Mall Blvd Ste 600C Savannah, GA 31406 US",32.00529780199559,-81.1139359964438
Georgia,Snellville,"1650 Scenic Highway S Snellville, GA 30078 US",33.88240818771869,-84.01050865398463
Georgia,Suwanee,"3186 Lawrenceville Suwanee Rd Suwanee, GA 30024 US",34.034380234679965,-84.05223583374692
Georgia,Tucker,"4347 Hugh Howell Rd Tucker, GA 30084 US",33.851604751411664,-84.21001497362806
Georgia,Warner Robins,"133 Margie Dr Ste 500 Warner Robins, GA 31093 US",32.6185625,-83.69034429999999
Idaho,Boise,"205 N Milwaukee St Boise, ID 83704 US",43.606685999999996,-116.2823
Idaho,Boise,"305 S 6th St Boise, ID 83702 US",43.61266805437867,-116.203093635582
Idaho,Boise,"7610 W State Street Suite 110 Boise, ID 83714 US",43.671260920411406,-116.28303340613422
Idaho,Meridian,"2126 N Eagle Rd Ste 100 Meridian, ID 83646 US",43.6241636,-116.3537875
Illinois,Addison,"1078 N Rohlwing Rd Lake & Rohlwing Addison, IL 60101 US",41.9496874031525,-88.03226236073057
Illinois,Algonquin,"412 S Randall Rd Algonquin, IL 60102 US",42.17159600252217,-88.3358836669917
Illinois,Arlington Heights,"338 E Rand Rd Arlington Heights, IL 60004 US",42.11278119202118,-87.97832011564141
Illinois,Aurora,"1167 N Eola Rd Ste 105 Aurora, IL 60502 US",41.780402,-88.24009179999999
Illinois,Aurora,"1480 N Orchard Rd Ste 114 Aurora, IL 60506 US",41.78628300002482,-88.37625017790987
Illinois,Aurora,"2902 Kirk Rd Suite 100 Aurora, IL 60502 US",41.81371921948669,-88.28039555276126
Illinois,Aurora,"848 N Route 59 Ste 106 Aurora, IL 60504 US",41.76848482177453,-88.20634978693226
Illinois,Berwyn,"7140 Cermak Rd Berwyn, IL 60402 US",41.85069115953785,-87.80281364750965
Illinois,Bloomingdale,"170 E Lake St Bloomingdale, IL 60108 US",41.957117193991756,-88.07361856258295
Illinois,Bloomingdale,"396 W Army Trail Rd Bloomingdale, IL 60108 US",41.93874655089229,-88.11421337463663
Illinois,Bloomington,"305 N Veterans Pkwy Ste 101 Bloomington, IL 61704 US",40.48248541554632,-88.95222838487888
Illinois,Bolingbrook,"274 S Weber Rd Bolingbrook, IL 60490 US",41.69036302462849,-88.12505971317728
Illinois,Bolingbrook,"750 Janes Ave Ste A Bolingbrook, IL 60440 US",41.721287,-88.0379517
Illinois,Bourbonnais,"1601 N State Route 50 Bourbonnais, IL 60914 US",41.17397974758985,-87.85218980919035
Illinois,Bridgeview,"8813 S. Harlem Ave Bridgeview, IL 60455 US",41.73124799980357,-87.79849106962604
Illinois,Champaign,"528 E Green St Ste 101 Champaign, IL 61820 US",40.11042402624319,-88.230642146627
Illinois,Champaign,"903 W Anthony Dr # A Champaign, IL 61821 US",40.1374091,-88.2585773
Illinois,Chicago,"10 E Jackson Blvd Chicago, IL 60604 US",41.87833440877127,-87.62721760398459
Illinois,Chicago,"10 S La Salle St Ste 106 Chicago, IL 60603 US",41.8817766,-87.6326875
Illinois,Chicago,"1025 W Belmont Ave Chicago, IL 60657 US",41.939730873361896,-87.65514537055225
Illinois,Chicago,"1027 W Addison St Ste A108 Chicago, IL 60613 US",41.9469614,-87.6554621
Illinois,Chicago,"1132 S Clinton St Clinton & Grenshaw Chicago, IL 60607 US",41.8680179739901,-87.64108456869984
Illinois,Chicago,"1142 S Wabash Ave Chicago, IL 60605 US",41.86782060020389,-87.62609926489266
Illinois,Chicago,"1166 N State St Chicago, IL 60610 US",41.9037469498126,-87.62887866625307
Illinois,Chicago,"1522 E 53rd St Lake Park Ave. & 53rd St. Chicago, IL 60615 US",41.799710499999996,-87.58803940000001
Illinois,Chicago,"1733 N Damen Ave Chicago, IL 60647 US",41.91329797039207,-87.67733037205755
Illinois,Chicago,"2000 N Clybourn Ave Ste H Chicago, IL 60614 US",41.917730999999996,-87.66008479999999
Illinois,Chicago,"210 W North Ave Chicago, IL 60610 US",41.91140322712575,-87.63506934259453
Illinois,Chicago,"230 West Monroe Street Chicago, IL 60606 US",41.88108437813068,-87.63511297548047
Illinois,Chicago,"2302 W 95th St Chicago, IL 60643 US",41.72143990127643,-87.67996342657749
Illinois,Chicago,"233 W Lake St Chicago, IL 60606 US",41.8855320270008,-87.63522506502972
Illinois,Chicago,"2400 N Lincoln Ave Chicago, IL 60614 US",41.925666831156285,-87.64948923417484
Illinois,Chicago,"2640 N Narragansett Ave Ste D1 Chicago, IL 60639 US",41.92851792184805,-87.78722253233002
Illinois,Chicago,"2743 N Elston Ave Chicago, IL 60647 US",41.93166629191262,-87.68637726512645
Illinois,Chicago,"2809 N Ashland Ave Chicago, IL 60657 US",41.93283499537232,-87.66802508832586
Illinois,Chicago,"291 E Ontario St Chicago, IL 60611 US",41.89304267133276,-87.62061535496754
Illinois,Chicago,"311 S Wacker Dr Lowr 100 Chicago, IL 60606 US",41.877522,-87.63622099999999
Illinois,Chicago,"316 N Michigan Ave Chicago, IL 60601 US",41.88728772316605,-87.62484811532688
Illinois,Chicago,"3227 W Addison St Chicago, IL 60618 US",41.945785886495464,-87.70913422485144
Illinois,Chicago,"3312 N Western Ave Chicago, IL 60618 US",41.941339678479366,-87.68876654419417
Illinois,Chicago,"41 W. 87th Street Chicago, IL 60620 US",41.735882399999994,-87.62601590000001
Illinois,Chicago,"4657 W Irving Park Rd Chicago, IL 60641 US",41.95324304724903,-87.74494020246414
Illinois,Chicago,"5224 N Broadway St Ste 102 Chicago, IL 60640 US",41.97713525720151,-87.66040990548163
Illinois,Chicago,"525 W Monroe St Ste L1A Chicago, IL 60661 US",41.88036397909193,-87.64086857977965
Illinois,Chicago,"5330 S Pulaski Rd Chicago, IL 60632 US",41.79619333026624,-87.72356814466468
Illinois,Chicago,"5961 N Lincoln Ave Suite 101 Chicago, IL 60659 US",41.98955173079163,-87.70556567170865
Illinois,Chicago,"6 W Grand Ave Chicago, IL 60654 US",41.891810799999995,-87.62848559999999
Illinois,Chicago,"610 W Diversey Pkwy Chicago, IL 60614 US",41.93303499501625,-87.64420581377355
Illinois,Chicago,"6600 N Sheridan Rd Chicago, IL 60626 US",42.00272859488067,-87.66121950000002
Illinois,Chicago,"725 S. Seeley Avenue Chicago, IL 60612 US",41.8723681,-87.6772381
Illinois,Chicago,"7561 S. Cicero Avenue Chicago, IL 60652 US",41.75477468508043,-87.74066386656763
Illinois,Chicago,"8 E Madison St Chicago, IL 60602 US",41.882276949402396,-87.62712131212255
Illinois,Chicago,"806 W 63rd St Chicago, IL 60621 US",41.77998374448471,-87.64511749125887
Illinois,Cicero,"2201 S Cicero Ave Cicero, IL 60804 US",41.850796200000005,-87.7439411
Illinois,Countryside,"5801 S La Grange Rd Countryside, IL 60525 US",41.7847779186473,-87.86812296932884
Illinois,Crestwood,"13340 Cicero Ave Crestwood, IL 60418 US",41.64942357682577,-87.7387279322765
Illinois,Crystal Lake,"5006 Northwest Hwy Ste A Crystal Lake, IL 60014 US",42.2266201,-88.29496400000001
Illinois,Decatur,"4165 N Water St Decatur, IL 62526 US",39.897905200000004,-88.95560350000001
Illinois,Deerfield,"675 Deerfield Rd Ste 120 Deerfield, IL 60015 US",42.1671726,-87.84428620000001
Illinois,Dekalb,"1013 W Lincoln Hwy Ste A Dekalb, IL 60115 US",41.931431845416185,-88.77154605520798
Illinois,Dekalb,"2383 Sycamore Rd Dekalb, IL 60115 US",41.95327767992289,-88.72541913125025
Illinois,Downers Grove,"1203 Ogden Ave Downers Grove, IL 60515 US",41.808188288920825,-88.014413135514
Illinois,Downers Grove,"1556 Butterfield Rd Ste A Downers Grove, IL 60515 US",41.8352626,-88.025264
Illinois,East Peoria,"300 W Washington St East Peoria, IL 61611 US",40.66952944937027,-89.58376065305845
Illinois,Effingham,"1207 N Keller Dr Effingham, IL 62401 US",39.137954216448655,-88.56590846932886
Illinois,Elgin,"2500 N Randall Rd Elgin, IL 60124 US",42.0945929,-88.3364554
Illinois,Elk Grove Village,"910 Elk Grove Town Ctr Elk Grove Village, IL 60007 US",42.003125299999994,-88.0049343
Illinois,Elmhurst,"139 N York St Elmhurst, IL 60126 US",41.90128793628985,-87.93955009479197
Illinois,Elmhurst,"353 S IL Route 83 Elmhurst, IL 60126 US",41.890667151462104,-87.96134850690294
Illinois,Evanston,"711 Church St Evanston, IL 60201 US",42.04863976134647,-87.68125400238114
Illinois,Fairview Heights,"6415 N Illinois St Fairview Heights, IL 62208 US",38.591923078391204,-89.98552974909114
Illinois,Frankfort,"11129 W Lincoln Hwy Frankfort, IL 60423 US",41.50231724529297,-87.8867683582838
Illinois,Franklin Park,"2926 Mannheim Rd Franklin Park, IL 60131 US",41.93185926667227,-87.88549358096826
Illinois,Geneva,"1441 S Randall Rd Ste D Geneva, IL 60134 US",41.87468403493223,-88.33968800889551
Illinois,Glen Ellyn,"695 Roosevelt Rd Glen Ellyn, IL 60137 US",41.85900705685357,-88.05765157729816
Illinois,Glenview,"2341 Willow Rd Glenview, IL 60025 US",42.1047828894707,-87.81413174203071
Illinois,Glenview,"3846 Willow Road Glenview, IL 60062 US",42.10959366267737,-87.87485956564139
Illinois,Gurnee,"6040 Gurnee Mills Cir E Gurnee, IL 60031 US",42.384201794446284,-87.95444163379385
Illinois,Hoffman Estates,"15 E Golf Rd Hoffman Estates, IL 60169 US",42.04887855263254,-88.0789019139159
Illinois,Hoffman Estates,"4600 Hoffman Blvd Hoffman Estates, IL 60192 US",42.0705485,-88.1911205
Illinois,Homer Glen,"14116 S Bell Rd Homer Glen, IL 60491 US",41.632019824148436,-87.93181137150394
Illinois,Homewood,"17700 Halsted St Homewood, IL 60430 US",41.568102,-87.636909
Illinois,Joliet,"2609 W Jefferson St Joliet, IL 60435 US",41.52262690215944,-88.14753271163944
Illinois,Joliet,"2848 Plainfield Rd Joliet, IL 60435 US",41.576823,-88.1589
Illinois,Kildeer,"20505 Rand Rd Ste 400 Kildeer, IL 60047 US",42.16132855306302,-88.04982746165672
Illinois,La Grange,"40 N La Grange Rd La Grange, IL 60525 US",41.81775311651351,-87.87007642822438
Illinois,Lake Bluff,"945 Rockland Rd Ste A Lake Bluff, IL 60044 US",42.279017465227106,-87.87148000372845
Illinois,Libertyville,"139 N Milwaukee Ave Libertyville, IL 60048 US",42.28394186980323,-87.95382373170288
Illinois,Lincolnshire,"950 Milwaukee Ave Ste A Lincolnshire, IL 60069 US",42.18214408154884,-87.92907698680534
Illinois,Lincolnwood,"7150 N McCormick Blvd Lincolnwood, IL 60712 US",42.01066901412909,-87.71212630031448
Illinois,Lockport,"16433 W 159th St Lockport, IL 60441 US",41.5972833,-88.0171585
Illinois,Machesney Park,"1570 W Lane Rd Machesney Park, IL 61115 US",42.3660778,-89.0234592
Illinois,Matteson,"4815 211th St Matteson, IL 60443 US",41.505630016609295,-87.73330354437786
Illinois,McHenry,"2304 N Richmond Rd McHenry, IL 60051 US",42.359959616430565,-88.26646467313593
Illinois,Melrose Park,"1401 W North Ave Ste A Melrose Park, IL 60160 US",41.90883227907935,-87.85005666916345
Illinois,Mokena,"19130 S La Grange Rd Ste 100 Mokena, IL 60448 US",41.5417749,-87.85133950000001
Illinois,Moline,"3941 41st Avenue Dr Moline, IL 61265 US",41.47069453983136,-90.47969505552255
Illinois,Mt Prospect,"102 E Kensington Rd Mt Prospect, IL 60056 US",42.08110867465319,-87.9356714875911
Illinois,Naperville,"1516 N Naper Blvd Suite 104 Naperville, IL 60563 US",41.79744009721777,-88.11870392423975
